country,state,city,station,last_update,latitude,longitude,pollutant_id,pollutant_min,pollutant_max,pollutant_avg
India,Andhra_Pradesh,Chittoor,"Gangineni Cheruvu, Chittoor - APPCB","28-09-2025 17:00:00",13.204880,79.097889,NH3,NA,NA,NA
India,Andhra_Pradesh,Chittoor,"Gangineni Cheruvu, Chittoor - APPCB","28-09-2025 17:00:00",13.204880,79.097889,SO2,10,11,10
India,Andhra_Pradesh,Kadapa,"Yerramukkapalli, Kadapa - APPCB","28-09-2025 17:00:00",14.465052,78.824187,PM2.5,57,73,63
India,Andhra_Pradesh,Kadapa,"Yerramukkapalli, Kadapa - APPCB","28-09-2025 17:00:00",14.465052,78.824187,NO2,12,18,14
India,Assam,Guwahati,"Pan Bazaar, Guwahati - PCBA","28-09-2025 17:00:00",26.187500,91.744194,OZONE,18,18,18
India,Assam,Nagaon,"Christianpatty, Nagaon - PCBA","28-09-2025 17:00:00",26.349082,92.68449,PM2.5,34,60,54
India,Assam,Nagaon,"Christianpatty, Nagaon - PCBA","28-09-2025 17:00:00",26.349082,92.68449,PM10,36,51,47
India,Andhra_Pradesh,Tirumala,"Toll Gate, Tirumala - APPCB","28-09-2025 17:00:00",13.67,79.35,PM2.5,5,40,15
India,Andhra_Pradesh,Vijayawada,"Rajiv Gandhi Park, Vijayawada - APPCB","28-09-2025 17:00:00",16.509717,80.612222,PM10,NA,NA,NA
India,Andhra_Pradesh,Visakhapatnam,"GVM Corporation, Visakhapatnam - APPCB","28-09-2025 17:00:00",17.72,83.3,NH3,3,4,3
India,Andhra_Pradesh,Visakhapatnam,"GVM Corporation, Visakhapatnam - APPCB","28-09-2025 17:00:00",17.72,83.3,SO2,4,14,7
India,Andhra_Pradesh,Visakhapatnam,"GVM Corporation, Visakhapatnam - APPCB","28-09-2025 17:00:00",17.72,83.3,OZONE,5,57,39
India,Andhra_Pradesh,Vijayawada,"Rajiv Gandhi Park, Vijayawada - APPCB","28-09-2025 17:00:00",16.509717,80.612222,NH3,NA,NA,NA
India,Andhra_Pradesh,Vijayawada,"Rajiv Gandhi Park, Vijayawada - APPCB","28-09-2025 17:00:00",16.509717,80.612222,CO,32,32,32
India,Andhra_Pradesh,Vijayawada,"Rajiv Gandhi Park, Vijayawada - APPCB","28-09-2025 17:00:00",16.509717,80.612222,OZONE,35,41,37
India,Assam,Guwahati,"IITG, Guwahati - PCBA","28-09-2025 17:00:00",26.2028636,91.70046436,PM2.5,3,62,39
India,Assam,Guwahati,"IITG, Guwahati - PCBA","28-09-2025 17:00:00",26.2028636,91.70046436,PM10,9,108,55
India,Andhra_Pradesh,Rajamahendravaram,"Anand Kala Kshetram, Rajamahendravaram - APPCB","28-09-2025 17:00:00",16.9872867,81.7363176,PM2.5,3,22,13
India,Andhra_Pradesh,Amaravati,"Secretariat, Amaravati - APPCB","28-09-2025 17:00:00",16.5150833,80.5181667,PM10,14,32,23
India,Assam,Guwahati,"LGBI Airport, Guwahati - PCBA","28-09-2025 17:00:00",26.10887,91.589544,NO2,8,17,14
India,Assam,Nagaon,"Christianpatty, Nagaon - PCBA","28-09-2025 17:00:00",26.349082,92.68449,NH3,4,4,4
India,Bihar,Begusarai,"Lohiyanagar, Begusarai - BSPCB","28-09-2025 17:00:00",25.42742023,86.13886079,SO2,19,38,26
India,Bihar,Begusarai,"Lohiyanagar, Begusarai - BSPCB","28-09-2025 17:00:00",25.42742023,86.13886079,CO,36,74,49
India,Bihar,Begusarai,"Lohiyanagar, Begusarai - BSPCB","28-09-2025 17:00:00",25.42742023,86.13886079,OZONE,2,47,28
India,Bihar,Bettiah,"Kamalnath Nagar, Bettiah - BSPCB","28-09-2025 17:00:00",26.80365,84.51954,PM2.5,NA,NA,NA
India,Bihar,Bettiah,"Kamalnath Nagar, Bettiah - BSPCB","28-09-2025 17:00:00",26.80365,84.51954,PM10,NA,NA,NA
India,Bihar,Bettiah,"Kamalnath Nagar, Bettiah - BSPCB","28-09-2025 17:00:00",26.80365,84.51954,SO2,4,24,11
India,Bihar,Bettiah,"Kamalnath Nagar, Bettiah - BSPCB","28-09-2025 17:00:00",26.80365,84.51954,OZONE,21,32,28
India,Bihar,Bhagalpur,"Mayaganj, Bhagalpur - BSPCB","28-09-2025 17:00:00",25.265194,87.012947,NH3,6,8,6
India,Bihar,"Bihar Sharif","D M Colony, Bihar Sharif - BSPCB","28-09-2025 17:00:00",25.204762,85.514960,PM10,59,111,88
India,Bihar,"Bihar Sharif","D M Colony, Bihar Sharif - BSPCB","28-09-2025 17:00:00",25.204762,85.514960,OZONE,20,56,31
India,Assam,Nalbari,"Bata Chowk, Nalbari - PCBA","28-09-2025 17:00:00",26.446912,91.439057,SO2,15,21,20
India,Assam,Silchar,"Tarapur, Silchar - PCBA","28-09-2025 17:00:00",24.82827,92.79525,SO2,5,5,5
India,Assam,Silchar,"Tarapur, Silchar - PCBA","28-09-2025 17:00:00",24.82827,92.79525,OZONE,1,1,1
India,Assam,Sivasagar,"Girls College, Sivasagar - PCBA","28-09-2025 17:00:00",26.987634,94.636574,PM10,17,45,27
India,Bihar,Araria,"Kharahiya Basti, Araria - BSPCB","28-09-2025 17:00:00",26.146529,87.454184,NH3,5,5,5
India,Bihar,Aurangabad,"Gurdeo Nagar, Aurangabad - BSPCB","28-09-2025 17:00:00",24.75746,84.366208,NH3,1,2,1
India,Bihar,Aurangabad,"Gurdeo Nagar, Aurangabad - BSPCB","28-09-2025 17:00:00",24.75746,84.366208,CO,1,38,26
India,Bihar,Begusarai,"Lohiyanagar, Begusarai - BSPCB","28-09-2025 17:00:00",25.42742023,86.13886079,PM2.5,14,34,19
India,Bihar,Katihar,"Mirchaibari, Katihar - BSPCB","28-09-2025 17:00:00",25.560083,87.553265,OZONE,2,27,20
India,Bihar,Kishanganj,"SDM Office_Khagra, Kishanganj - BSPCB","28-09-2025 17:00:00",26.0881305,87.93840336,PM2.5,33,367,66
India,Bihar,Kishanganj,"SDM Office_Khagra, Kishanganj - BSPCB","28-09-2025 17:00:00",26.0881305,87.93840336,SO2,7,8,7
India,Bihar,Kishanganj,"SDM Office_Khagra, Kishanganj - BSPCB","28-09-2025 17:00:00",26.0881305,87.93840336,OZONE,14,18,16
India,Bihar,Manguraha,"Forest Rest House, Manguraha - BSPCB","28-09-2025 17:00:00",27.308328,84.531742,PM2.5,28,143,41
India,Bihar,Gaya,"Kareemganj, Gaya - BSPCB","28-09-2025 17:00:00",24.792403,84.992416,NH3,4,6,5
India,Bihar,Hajipur,"Industrial Area, Hajipur - BSPCB","28-09-2025 17:00:00",25.697189,85.245900,PM2.5,26,66,48
India,Bihar,Katihar,"Mirchaibari, Katihar - BSPCB","28-09-2025 17:00:00",25.560083,87.553265,PM2.5,30,40,34
India,Bihar,Katihar,"Mirchaibari, Katihar - BSPCB","28-09-2025 17:00:00",25.560083,87.553265,CO,66,101,79
India,Bihar,Muzaffarpur,"Buddha Colony, Muzaffarpur - BSPCB","28-09-2025 17:00:00",26.11442,85.39813,PM10,41,67,58
India,Bihar,Muzaffarpur,"Buddha Colony, Muzaffarpur - BSPCB","28-09-2025 17:00:00",26.11442,85.39813,NO2,11,19,15
India,Bihar,Muzaffarpur,"Buddha Colony, Muzaffarpur - BSPCB","28-09-2025 17:00:00",26.11442,85.39813,SO2,3,5,4
India,Bihar,Gaya,"Collectorate, Gaya - BSPCB","28-09-2025 17:00:00",24.7955,84.9994,PM2.5,2,96,40
India,Bihar,Gaya,"Collectorate, Gaya - BSPCB","28-09-2025 17:00:00",24.7955,84.9994,NO2,8,10,9
India,Bihar,Gaya,"Collectorate, Gaya - BSPCB","28-09-2025 17:00:00",24.7955,84.9994,SO2,10,11,11
India,Bihar,Motihari,"Gandak Colony, Motihari - BSPCB","28-09-2025 17:00:00",26.63086,84.90051,PM2.5,13,55,33
India,Bihar,Motihari,"Gandak Colony, Motihari - BSPCB","28-09-2025 17:00:00",26.63086,84.90051,NO2,5,7,6
India,Assam,Nalbari,"Bata Chowk, Nalbari - PCBA","28-09-2025 17:00:00",26.446912,91.439057,PM10,24,61,41
India,Bihar,Munger,"Town Hall, Munger - BSPCB","28-09-2025 17:00:00",25.376776,86.471523,PM10,55,64,60
India,Bihar,Muzaffarpur,"Muzaffarpur Collectorate, Muzaffarpur - BSPCB","28-09-2025 17:00:00",26.1209,85.3647,SO2,4,6,4
India,Bihar,Muzaffarpur,"Muzaffarpur Collectorate, Muzaffarpur - BSPCB","28-09-2025 17:00:00",26.1209,85.3647,OZONE,12,58,31
India,Bihar,Patna,"DRM Office Danapur, Patna - BSPCB","28-09-2025 17:00:00",25.586562,85.043586,PM2.5,4,71,30
India,Bihar,Patna,"DRM Office Danapur, Patna - BSPCB","28-09-2025 17:00:00",25.586562,85.043586,NH3,2,3,3
India,Bihar,Patna,"DRM Office Danapur, Patna - BSPCB","28-09-2025 17:00:00",25.586562,85.043586,CO,25,40,34
India,Bihar,Patna,"Govt. High School Shikarpur, Patna - BSPCB","28-09-2025 17:00:00",25.592539,85.227158,PM2.5,26,46,33
India,Bihar,Patna,"Govt. High School Shikarpur, Patna - BSPCB","28-09-2025 17:00:00",25.592539,85.227158,NO2,14,19,16
India,Bihar,Patna,"Govt. High School Shikarpur, Patna - BSPCB","28-09-2025 17:00:00",25.592539,85.227158,SO2,6,63,11
India,Bihar,Patna,"IGSC Planetarium Complex, Patna - BSPCB","28-09-2025 17:00:00",25.610369,85.132568,NO2,17,20,18
India,Bihar,Patna,"IGSC Planetarium Complex, Patna - BSPCB","28-09-2025 17:00:00",25.610369,85.132568,SO2,30,33,31
India,Bihar,Patna,"IGSC Planetarium Complex, Patna - BSPCB","28-09-2025 17:00:00",25.610369,85.132568,CO,70,74,73
India,Bihar,Samastipur,"DM Office_Kasipur, Samastipur - BSPCB","28-09-2025 17:00:00",25.859655,85.77944,SO2,17,46,33
India,Bihar,Samastipur,"DM Office_Kasipur, Samastipur - BSPCB","28-09-2025 17:00:00",25.859655,85.77944,CO,2,4,3
India,Bihar,Sasaram,"Dada Peer, Sasaram - BSPCB","28-09-2025 17:00:00",24.952822,84.002396,PM2.5,NA,NA,NA
India,Bihar,Sasaram,"Dada Peer, Sasaram - BSPCB","28-09-2025 17:00:00",24.952822,84.002396,SO2,1,5,3
India,Chhattisgarh,Bhilai,"32Bungalows, Bhilai - CECB","28-09-2025 17:00:00",21.194815,81.314770,CO,6,96,10
India,Chhattisgarh,Bhilai,"32Bungalows, Bhilai - CECB","28-09-2025 17:00:00",21.194815,81.314770,OZONE,4,23,19
India,Chhattisgarh,Bhilai,"Hathkhoj, Bhilai - CECB","28-09-2025 17:00:00",21.224231,81.408350,PM2.5,2,23,10
India,Chhattisgarh,Bhilai,"Hathkhoj, Bhilai - CECB","28-09-2025 17:00:00",21.224231,81.408350,NO2,7,25,12
India,Bihar,Saharsa,"Police Line, Saharsa - BSPCB","28-09-2025 17:00:00",25.892357,86.590325,OZONE,7,57,34
India,Bihar,Samastipur,"DM Office_Kasipur, Samastipur - BSPCB","28-09-2025 17:00:00",25.859655,85.77944,PM2.5,32,100,60
India,Bihar,Patna,"Muradpur, Patna - BSPCB","28-09-2025 17:00:00",25.619651,85.147382,NH3,4,10,5
India,Bihar,Patna,"Rajbansi Nagar, Patna - BSPCB","28-09-2025 17:00:00",25.599486,85.113666,PM2.5,18,39,29
India,Bihar,Siwan,"Chitragupta Nagar, Siwan - BSPCB","28-09-2025 17:00:00",26.2271665,84.3570427,PM2.5,20,90,38
India,Bihar,Siwan,"Chitragupta Nagar, Siwan - BSPCB","28-09-2025 17:00:00",26.2271665,84.3570427,OZONE,4,7,6
India,Chandigarh,Chandigarh,"Sector-25, Chandigarh - CPCC","28-09-2025 17:00:00",30.751462,76.762879,NH3,5,7,6
India,Bihar,Rajgir,"Dangi Tola, Rajgir - BSPCB","28-09-2025 17:00:00",25.03280,85.41948,CO,80,100,91
India,Bihar,Purnia,"Mariam Nagar, Purnia - BSPCB","28-09-2025 17:00:00",25.366336,87.117468,NH3,3,3,3
India,Chhattisgarh,Milupara,"Govt. Higher Secondary School, Milupara - CECB","28-09-2025 17:00:00",22.1910172,83.5197009,NO2,6,21,13
India,Chhattisgarh,Milupara,"Govt. Higher Secondary School, Milupara - CECB","28-09-2025 17:00:00",22.1910172,83.5197009,CO,12,24,16
India,Chhattisgarh,Milupara,"Govt. Higher Secondary School, Milupara - CECB","28-09-2025 17:00:00",22.1910172,83.5197009,OZONE,59,77,71
India,Chhattisgarh,Raipur,"AIIMS, Raipur - CECB","28-09-2025 17:00:00",21.258815,81.578979,PM2.5,3,19,9
India,Chhattisgarh,Raipur,"AIIMS, Raipur - CECB","28-09-2025 17:00:00",21.258815,81.578979,NH3,5,5,5
India,Chhattisgarh,Raipur,"AIIMS, Raipur - CECB","28-09-2025 17:00:00",21.258815,81.578979,CO,22,51,24
India,Chhattisgarh,Raipur,"Bhatagaon New ISBT, Raipur - CECB","28-09-2025 17:00:00",21.219665,81.630094,SO2,5,7,6
India,Chhattisgarh,Raipur,"Krishak Nagar, Raipur - CECB","28-09-2025 17:00:00",21.237755,81.705301,PM2.5,2,17,7
India,Chhattisgarh,Tumidih,"OP Jindal Industrial Park, Tumidih - CECB","28-09-2025 17:00:00",22.06631475,83.33820077,PM2.5,8,34,19
India,Delhi,Delhi,"Alipur, Delhi - DPCC","28-09-2025 17:00:00",28.815329,77.153010,NO2,9,37,20
India,Delhi,Delhi,"Alipur, Delhi - DPCC","28-09-2025 17:00:00",28.815329,77.153010,OZONE,3,46,31
India,Delhi,Delhi,"Anand Vihar, Delhi - DPCC","28-09-2025 17:00:00",28.647622,77.3158090,OZONE,1,19,3
India,Delhi,Delhi,"Ashok Vihar, Delhi - DPCC","28-09-2025 17:00:00",28.695381,77.181665,PM2.5,27,323,126
India,Delhi,Delhi,"Ashok Vihar, Delhi - DPCC","28-09-2025 17:00:00",28.695381,77.181665,NO2,13,92,40
India,Delhi,Delhi,"CRRI Mathura Road, Delhi - IMD","28-09-2025 17:00:00",28.5512005,77.2735737,PM10,45,212,123
India,Delhi,Delhi,"CRRI Mathura Road, Delhi - IMD","28-09-2025 17:00:00",28.5512005,77.2735737,NO2,17,44,29
India,Delhi,Delhi,"CRRI Mathura Road, Delhi - IMD","28-09-2025 17:00:00",28.5512005,77.2735737,OZONE,18,198,71
India,Delhi,Delhi,"Chandni Chowk, Delhi - IITM","28-09-2025 17:00:00",28.656756,77.227234,SO2,3,15,13
India,Delhi,Delhi,"Chandni Chowk, Delhi - IITM","28-09-2025 17:00:00",28.656756,77.227234,OZONE,9,112,49
India,Delhi,Delhi,"DTU, Delhi - CPCB","28-09-2025 17:00:00",28.7500499,77.1112615,NO2,23,57,42
India,Delhi,Delhi,"Ashok Vihar, Delhi - DPCC","28-09-2025 17:00:00",28.695381,77.181665,NH3,1,2,1
India,Delhi,Delhi,"Aya Nagar, Delhi - IMD","28-09-2025 17:00:00",28.4706914,77.1099364,PM10,45,221,114
India,Delhi,Delhi,"Aya Nagar, Delhi - IMD","28-09-2025 17:00:00",28.4706914,77.1099364,OZONE,11,93,61
India,Delhi,Delhi,"Burari Crossing, Delhi - IMD","28-09-2025 17:00:00",28.7256504,77.2011573,PM2.5,3,308,116
India,Delhi,Delhi,"Burari Crossing, Delhi - IMD","28-09-2025 17:00:00",28.7256504,77.2011573,CO,20,58,25
India,Chhattisgarh,Bilaspur,"Mangala, Bilaspur - NTPC","28-09-2025 17:00:00",22.08815,82.13737,PM10,NA,NA,NA
India,Chhattisgarh,Chhal,"Nawapara SECL Colony, Chhal - CECB","28-09-2025 17:00:00",22.118125,83.140608,PM10,33,61,44
India,Chhattisgarh,Chhal,"Nawapara SECL Colony, Chhal - CECB","28-09-2025 17:00:00",22.118125,83.140608,NO2,4,13,9
India,Chhattisgarh,Korba,"Urja Nagar, Korba - CECB","28-09-2025 17:00:00",22.348441,82.549611,SO2,4,12,9
India,Chhattisgarh,Kunjemura,"OP Jindal School, Kunjemura - CECB","28-09-2025 17:00:00",22.126650,83.483212,PM2.5,1,21,5
India,Chhattisgarh,Kunjemura,"OP Jindal School, Kunjemura - CECB","28-09-2025 17:00:00",22.126650,83.483212,SO2,1,10,4
India,Delhi,Delhi,"DTU, Delhi - CPCB","28-09-2025 17:00:00",28.7500499,77.1112615,CO,12,34,18
India,Delhi,Delhi,"Dr. Karni Singh Shooting Range, Delhi - DPCC","28-09-2025 17:00:00",28.498571,77.264840,OZONE,7,69,36
India,Chhattisgarh,Chhal,"Nawapara SECL Colony, Chhal - CECB","28-09-2025 17:00:00",22.118125,83.140608,OZONE,33,79,61
India,Chhattisgarh,Korba,"Rampur, Korba - CECB","28-09-2025 17:00:00",22.368195,82.746431,NH3,1,1,1
India,Delhi,Delhi,"Dwarka-Sector 8, Delhi - DPCC ","28-09-2025 17:00:00",28.5710274,77.0719006,NO2,26,116,57
India,Delhi,Delhi,"Dwarka-Sector 8, Delhi - DPCC ","28-09-2025 17:00:00",28.5710274,77.0719006,SO2,12,20,15
India,Delhi,Delhi,"ITO, Delhi - CPCB","28-09-2025 17:00:00",28.628624,77.241060,NH3,4,6,5
India,Delhi,Delhi,"ITO, Delhi - CPCB","28-09-2025 17:00:00",28.628624,77.241060,OZONE,39,63,41
India,Delhi,Delhi,"Jahangirpuri, Delhi - DPCC","28-09-2025 17:00:00",28.732820,77.170633,PM10,58,276,140
India,Delhi,Delhi,"Jahangirpuri, Delhi - DPCC","28-09-2025 17:00:00",28.732820,77.170633,NH3,6,7,6
India,Delhi,Delhi,"Jahangirpuri, Delhi - DPCC","28-09-2025 17:00:00",28.732820,77.170633,SO2,6,20,11
India,Delhi,Delhi,"Jawaharlal Nehru Stadium, Delhi - DPCC","28-09-2025 17:00:00",28.580280,77.233829,PM2.5,24,197,77
India,Delhi,Delhi,"Major Dhyan Chand National Stadium, Delhi - DPCC","28-09-2025 17:00:00",28.611281,77.237738,PM2.5,20,237,92
India,Delhi,Delhi,"Major Dhyan Chand National Stadium, Delhi - DPCC","28-09-2025 17:00:00",28.611281,77.237738,SO2,4,9,6
India,Delhi,Delhi,"Major Dhyan Chand National Stadium, Delhi - DPCC","28-09-2025 17:00:00",28.611281,77.237738,OZONE,3,107,31
India,Delhi,Delhi,"Mandir Marg, Delhi - DPCC","28-09-2025 17:00:00",28.636429,77.201067,PM10,31,163,92
India,Delhi,Delhi,"Jawaharlal Nehru Stadium, Delhi - DPCC","28-09-2025 17:00:00",28.580280,77.233829,OZONE,7,127,27
India,Delhi,Delhi,"Lodhi Road, Delhi - IMD","28-09-2025 17:00:00",28.5918245,77.2273074,NO2,23,105,52
India,Delhi,Delhi,"Lodhi Road, Delhi - IMD","28-09-2025 17:00:00",28.5918245,77.2273074,CO,13,65,22
India,Delhi,Delhi,"IHBAS, Dilshad Garden, Delhi - CPCB","28-09-2025 17:00:00",28.6811736,77.3025234,PM10,60,146,115
India,Delhi,Delhi,"IHBAS, Dilshad Garden, Delhi - CPCB","28-09-2025 17:00:00",28.6811736,77.3025234,CO,38,70,42
India,Delhi,Delhi,"ITO, Delhi - CPCB","28-09-2025 17:00:00",28.628624,77.241060,PM2.5,27,271,101
India,Delhi,Delhi,"Narela, Delhi - DPCC","28-09-2025 17:00:00",28.822836,77.101981,OZONE,2,84,8
India,Delhi,Delhi,"Nehru Nagar, Delhi - DPCC","28-09-2025 17:00:00",28.567890,77.250515,PM10,51,287,116
India,Delhi,Delhi,"Nehru Nagar, Delhi - DPCC","28-09-2025 17:00:00",28.567890,77.250515,NH3,5,13,9
India,Delhi,Delhi,"Punjabi Bagh, Delhi - DPCC","28-09-2025 17:00:00",28.674045,77.131023,PM2.5,23,318,119
India,Delhi,Delhi,"Punjabi Bagh, Delhi - DPCC","28-09-2025 17:00:00",28.674045,77.131023,PM10,69,293,144
India,Delhi,Delhi,"Punjabi Bagh, Delhi - DPCC","28-09-2025 17:00:00",28.674045,77.131023,NH3,2,4,3
India,Delhi,Delhi,"Punjabi Bagh, Delhi - DPCC","28-09-2025 17:00:00",28.674045,77.131023,SO2,3,5,4
India,Delhi,Delhi,"Mundka, Delhi - DPCC","28-09-2025 17:00:00",28.684678,77.076574,OZONE,6,80,50
India,Delhi,Delhi,"Najafgarh, Delhi - DPCC","28-09-2025 17:00:00",28.570173,76.933762,NH3,3,5,4
India,Delhi,Delhi,"Vivek Vihar, Delhi - DPCC","28-09-2025 17:00:00",28.672342,77.315260,PM10,48,308,122
India,Delhi,Delhi,"Wazirpur, Delhi - DPCC","28-09-2025 17:00:00",28.699793,77.165453,NO2,51,118,79
India,Delhi,Delhi,"Wazirpur, Delhi - DPCC","28-09-2025 17:00:00",28.699793,77.165453,NH3,7,13,9
India,Gujarat,Ahmedabad,"Chandkheda, Ahmedabad - IITM","28-09-2025 17:00:00",23.107969,72.574648,NH3,7,15,11
India,Gujarat,Ahmedabad,"Gyaspur, Ahmedabad - IITM","28-09-2025 17:00:00",22.977134,72.553024,NH3,4,8,6
India,Gujarat,Ahmedabad,"Maninagar, Ahmedabad - GPCB","28-09-2025 17:00:00",23.002657,72.591912,PM10,13,56,25
India,Gujarat,Ahmedabad,"Maninagar, Ahmedabad - GPCB","28-09-2025 17:00:00",23.002657,72.591912,NO2,27,29,28
India,Delhi,Delhi,"Punjabi Bagh, Delhi - DPCC","28-09-2025 17:00:00",28.674045,77.131023,OZONE,4,104,42
India,Delhi,Delhi,"Pusa, Delhi - DPCC","28-09-2025 17:00:00",28.639652,77.146275,PM10,50,228,124
India,Delhi,Delhi,"Pusa, Delhi - IMD","28-09-2025 17:00:00",28.636110,77.173332,NO2,12,69,30
India,Delhi,Delhi,"R K Puram, Delhi - DPCC","28-09-2025 17:00:00",28.563262,77.186937,NO2,9,97,42
India,Delhi,Delhi,"R K Puram, Delhi - DPCC","28-09-2025 17:00:00",28.563262,77.186937,OZONE,19,103,68
India,Delhi,Delhi,"Rohini, Delhi - DPCC","28-09-2025 17:00:00",28.732528,77.119920,PM10,61,340,156
India,Delhi,Delhi,"Rohini, Delhi - DPCC","28-09-2025 17:00:00",28.732528,77.119920,CO,9,27,10
India,Gujarat,Gandhinagar,"GIFT City, Gandhinagar - IITM","28-09-2025 17:00:00",23.163798,72.677768,PM2.5,28,65,44
India,Gujarat,Gandhinagar,"IIPHG Lekawada, Gandhinagar - IITM","28-09-2025 17:00:00",23.243639,72.68994,CO,14,52,39
India,Gujarat,Gandhinagar,"Sector-10, Gandhinagar - GPCB","28-09-2025 17:00:00",23.221714,72.654328,NO2,17,17,17
India,Gujarat,Gandhinagar,"Sector-10, Gandhinagar - GPCB","28-09-2025 17:00:00",23.221714,72.654328,CO,10,16,10
India,Gujarat,Ahmedabad,"Rakhial, Ahmedabad - IITM","28-09-2025 17:00:00",23.016834,72.625775,CO,23,30,26
India,Gujarat,Ahmedabad,"SAC ISRO Satellite, Ahmedabad - IITM","28-09-2025 17:00:00",23.023389,72.515201,PM10,44,97,72
India,Gujarat,Ahmedabad,"SAC ISRO Satellite, Ahmedabad - IITM","28-09-2025 17:00:00",23.023389,72.515201,NO2,17,66,31
India,Gujarat,Vatva,"Phase-4 GIDC, Vatva - GPCB","28-09-2025 17:00:00",22.969611,72.643500,PM10,54,95,72
India,Gujarat,Vatva,"Phase-4 GIDC, Vatva - GPCB","28-09-2025 17:00:00",22.969611,72.643500,NH3,2,3,2
India,Gujarat,Vatva,"Phase-4 GIDC, Vatva - GPCB","28-09-2025 17:00:00",22.969611,72.643500,SO2,7,12,10
India,Gujarat,Ahmedabad,"Raikhad, Ahmedabad - IITM","28-09-2025 17:00:00",23.020509,72.579261,PM2.5,29,69,49
India,Gujarat,Ahmedabad,"Raikhad, Ahmedabad - IITM","28-09-2025 17:00:00",23.020509,72.579261,NO2,22,76,40
India,Gujarat,Ahmedabad,"Raikhad, Ahmedabad - IITM","28-09-2025 17:00:00",23.020509,72.579261,SO2,8,28,14
India,Haryana,Bahadurgarh,"Arya Nagar, Bahadurgarh - HSPCB","28-09-2025 17:00:00",28.6701,76.9254,CO,46,51,48
India,Delhi,Delhi,"Sri Aurobindo Marg, Delhi - DPCC","28-09-2025 17:00:00",28.531346,77.190156,SO2,2,5,3
India,Delhi,Delhi,"Shadipur, Delhi - CPCB","28-09-2025 17:00:00",28.6514781,77.1473105,NH3,7,9,8
India,"Himachal Pradesh",Baddi,"HIMUDA Complex Phase-1, Baddi - HPPCB","28-09-2025 17:00:00",30.943887,76.801991,CO,44,59,53
India,Jammu_and_Kashmir,Srinagar,"Rajbagh, Srinagar - JKSPCB","28-09-2025 17:00:00",34.066206,74.819820,PM2.5,33,71,54
India,Jammu_and_Kashmir,Srinagar,"Rajbagh, Srinagar - JKSPCB","28-09-2025 17:00:00",34.066206,74.819820,CO,12,19,13
India,Jharkhand,Dhanbad,"Sardar Patel Nagar, Dhanbad - JSPCB","28-09-2025 17:00:00",23.80569,86.44268,PM2.5,NA,NA,NA
India,Jharkhand,Dhanbad,"Sardar Patel Nagar, Dhanbad - JSPCB","28-09-2025 17:00:00",23.80569,86.44268,SO2,13,106,34
India,Jharkhand,Dhanbad,"Sardar Patel Nagar, Dhanbad - JSPCB","28-09-2025 17:00:00",23.80569,86.44268,CO,1,96,57
India,Karnataka,Bagalkot,"Vidayagiri, Bagalkot - KSPCB","28-09-2025 17:00:00",16.172806,75.659694,PM10,42,43,42
India,Karnataka,Bengaluru,"Bapuji Nagar, Bengaluru - KSPCB","28-09-2025 17:00:00",12.951913,77.539784,SO2,2,5,3
India,Haryana,Faridabad,"Sector 11, Faridabad - HSPCB","28-09-2025 17:00:00",28.376058,77.315741,CO,48,52,50
India,Haryana,Narnaul,"Shastri Nagar, Narnaul - HSPCB","28-09-2025 17:00:00",28.060249,76.113115,PM10,21,81,48
India,Haryana,Panchgaon,"Amity University, Panchgaon - IITM","28-09-2025 17:00:00",28.3153,76.9143,PM2.5,19,130,62
India,Haryana,Panchgaon,"Amity University, Panchgaon - IITM","28-09-2025 17:00:00",28.3153,76.9143,PM10,21,127,72
India,Haryana,Panchgaon,"Amity University, Panchgaon - IITM","28-09-2025 17:00:00",28.3153,76.9143,NO2,2,18,8
India,Haryana,Panchgaon,"Amity University, Panchgaon - IITM","28-09-2025 17:00:00",28.3153,76.9143,NH3,1,3,2
India,"Himachal Pradesh",Baddi,"HIMUDA Complex Phase-1, Baddi - HPPCB","28-09-2025 17:00:00",30.943887,76.801991,PM2.5,42,88,65
India,Karnataka,Bengaluru,"Hombegowda Nagar, Bengaluru - KSPCB","28-09-2025 17:00:00",12.938539,77.590100,NH3,1,1,1
India,Karnataka,Bengaluru,"Hombegowda Nagar, Bengaluru - KSPCB","28-09-2025 17:00:00",12.938539,77.590100,CO,6,18,11
India,Karnataka,Bengaluru,"Shivapura_Peenya, Bengaluru - KSPCB","28-09-2025 17:00:00",13.0246342,77.5080115,NH3,4,4,4
India,Karnataka,Bengaluru,"Shivapura_Peenya, Bengaluru - KSPCB","28-09-2025 17:00:00",13.0246342,77.5080115,SO2,5,11,7
India,Karnataka,Bengaluru,"Shivapura_Peenya, Bengaluru - KSPCB","28-09-2025 17:00:00",13.0246342,77.5080115,OZONE,23,25,24
India,Karnataka,Bengaluru,"Silk Board, Bengaluru - KSPCB","28-09-2025 17:00:00",12.917348,77.622813,PM2.5,13,27,20
India,Karnataka,Bengaluru,"Bapuji Nagar, Bengaluru - KSPCB","28-09-2025 17:00:00",12.951913,77.539784,CO,14,35,22
India,Karnataka,Bengaluru,"City Railway Station, Bengaluru - KSPCB","28-09-2025 17:00:00",12.9756843,77.5660749,PM10,86,97,90
India,Karnataka,Bengaluru,"Hebbal, Bengaluru - KSPCB","28-09-2025 17:00:00",13.029152,77.585901,PM2.5,2,19,9
India,Karnataka,Bengaluru,"Hebbal, Bengaluru - KSPCB","28-09-2025 17:00:00",13.029152,77.585901,NO2,20,22,21
India,Karnataka,Bengaluru,"Hebbal, Bengaluru - KSPCB","28-09-2025 17:00:00",13.029152,77.585901,CO,7,24,18
India,Haryana,Faridabad,"Sector 11, Faridabad - HSPCB","28-09-2025 17:00:00",28.376058,77.315741,NO2,30,32,31
India,Haryana,Faridabad,"Sector 11, Faridabad - HSPCB","28-09-2025 17:00:00",28.376058,77.315741,NH3,6,6,6
India,Haryana,Faridabad,"Sector 11, Faridabad - HSPCB","28-09-2025 17:00:00",28.376058,77.315741,SO2,8,9,8
India,Karnataka,Davanagere,"Devaraj Urs Badavane, Davanagere - KSPCB","28-09-2025 17:00:00",14.475800,75.905200,NH3,1,24,3
India,Karnataka,Davanagere,"Devaraj Urs Badavane, Davanagere - KSPCB","28-09-2025 17:00:00",14.475800,75.905200,OZONE,24,26,24
India,Karnataka,Chamarajanagar,"Urban, Chamarajanagar - KSPCB","28-09-2025 17:00:00",11.55358,76.55521,OZONE,13,35,26
India,Karnataka,Hubballi,"Lingaraj Nagar, Hubballi - KSPCB","28-09-2025 17:00:00",15.3714823,75.1160168,NO2,7,8,7
India,Karnataka,Dharwad,"Kalabhavan, Dharwad - KSPCB","28-09-2025 17:00:00",15.459706,75.008381,CO,22,48,39
India,Karnataka,Mysuru,"Hebbal 1st Stage, Mysuru - KSPCB","28-09-2025 17:00:00",12.21041,76.37376,SO2,1,19,8
India,Karnataka,Shivamogga,"Vinoba Nagara, Shivamogga - KSPCB","28-09-2025 17:00:00",13.940000,75.555917,OZONE,18,35,27
India,Karnataka,Yadgir,"Collector Office, Yadgir - KSPCB","28-09-2025 17:00:00",16.7602,77.1428,PM2.5,NA,NA,NA
India,Kerala,Thrissur,"Corporation Ground, Thrissur - Kerala PCB","28-09-2025 17:00:00",10.532400,76.215900,PM2.5,45,52,47
India,Kerala,Thrissur,"Corporation Ground, Thrissur - Kerala PCB","28-09-2025 17:00:00",10.532400,76.215900,OZONE,26,27,27
India,"Madhya Pradesh",Bhopal,"Idgah Hills, Bhopal - MPPCB","28-09-2025 17:00:00",23.264759,77.381568,OZONE,18,33,26
India,"Madhya Pradesh",Dewas,"Bhopal Chauraha, Dewas - MPPCB","28-09-2025 17:00:00",22.9682591,76.064118,OZONE,28,32,30
India,"Madhya Pradesh",Gwalior,"City Center, Gwalior - MPPCB","28-09-2025 17:00:00",26.203442,78.193251,PM2.5,NA,NA,NA
India,"Madhya Pradesh",Gwalior,"City Center, Gwalior - MPPCB","28-09-2025 17:00:00",26.203442,78.193251,SO2,7,25,21
India,Kerala,Eloor,"Udyogamandal, Eloor - Kerala PCB","28-09-2025 17:00:00",10.073232,76.302765,OZONE,11,12,12
India,Kerala,Kannur,"Thavakkara, Kannur - Kerala PCB","28-09-2025 17:00:00",11.875000,75.373200,NH3,2,2,2
India,Karnataka,Kalaburagi,"Mahatma Basaveswar Colony, Kalaburgi - KSPCB","28-09-2025 17:00:00",17.336318,76.847397,NH3,3,3,3
India,Karnataka,Madikeri,"Stuart Hill, Madikeri - KSPCB","28-09-2025 17:00:00",12.415911,75.735050,SO2,7,7,7
India,"Madhya Pradesh",Gwalior,"City Center, Gwalior - MPPCB","28-09-2025 17:00:00",26.203442,78.193251,CO,11,52,32
India,"Madhya Pradesh",Gwalior,"Deen Dayal Nagar, Gwalior - MPPCB","28-09-2025 17:00:00",26.259242,78.216432,NO2,6,53,25
India,"Madhya Pradesh",Gwalior,"Maharaj Bada, Gwalior - MPPCB","28-09-2025 17:00:00",26.200388,78.147714,PM10,39,500,94
India,"Madhya Pradesh",Gwalior,"Maharaj Bada, Gwalior - MPPCB","28-09-2025 17:00:00",26.200388,78.147714,NO2,2,37,11
India,"Madhya Pradesh",Dewas,"Bhopal Chauraha, Dewas - MPPCB","28-09-2025 17:00:00",22.9682591,76.064118,PM2.5,2,43,15
India,"Madhya Pradesh",Dewas,"Bhopal Chauraha, Dewas - MPPCB","28-09-2025 17:00:00",22.9682591,76.064118,NH3,3,3,3
India,Kerala,Thiruvananthapuram,"Kariavattom, Thiruvananthapuram - Kerala PCB","28-09-2025 17:00:00",8.563700,76.886500,CO,24,66,37
India,"Madhya Pradesh",Sagar,"Civil Lines, Sagar - MPPCB","28-09-2025 17:00:00",23.838586,78.759431,CO,27,37,32
India,"Madhya Pradesh",Satna,"Bandhavgar Colony, Satna - Birla Cement","28-09-2025 17:00:00",24.58434363,80.8549414,SO2,19,19,19
India,Maharashtra,Ahmednagar,"Tarakpur, Ahmednagar - MPCB","28-09-2025 17:00:00",19.10122,74.73339,PM2.5,5,41,14
India,Maharashtra,Ahmednagar,"Tarakpur, Ahmednagar - MPCB","28-09-2025 17:00:00",19.10122,74.73339,PM10,4,48,21
India,Maharashtra,Ahmednagar,"Tarakpur, Ahmednagar - MPCB","28-09-2025 17:00:00",19.10122,74.73339,OZONE,16,58,33
India,Maharashtra,Akola,"Ramdaspeth, Akola - MPCB","28-09-2025 17:00:00",20.719516,77.000253,PM10,13,32,23
India,"Madhya Pradesh",Indore,"Maguda Nagar, Indore - IMC","28-09-2025 17:00:00",22.7524,75.8872,NO2,2,2,2
India,"Madhya Pradesh",Indore,"Maguda Nagar, Indore - IMC","28-09-2025 17:00:00",22.7524,75.8872,SO2,39,41,40
India,"Madhya Pradesh",Indore,"Maguda Nagar, Indore - IMC","28-09-2025 17:00:00",22.7524,75.8872,CO,19,22,20
India,"Madhya Pradesh",Indore,"Regional Park, Indore - IMC","28-09-2025 17:00:00",22.6780,75.8559,SO2,NA,NA,NA
India,"Madhya Pradesh",Indore,"Regional Park, Indore - IMC","28-09-2025 17:00:00",22.6780,75.8559,OZONE,11,14,13
India,"Madhya Pradesh",Indore,"Chhoti Gwaltoli, Indore - MPPCB","28-09-2025 17:00:00",22.4310,75.5213,PM2.5,15,85,32
India,"Madhya Pradesh",Indore,"Chhoti Gwaltoli, Indore - MPPCB","28-09-2025 17:00:00",22.4310,75.5213,NO2,56,70,63
India,"Madhya Pradesh",Indore,"Chhoti Gwaltoli, Indore - MPPCB","28-09-2025 17:00:00",22.4310,75.5213,NH3,7,8,7
India,"Madhya Pradesh",Indore,"Chhoti Gwaltoli, Indore - MPPCB","28-09-2025 17:00:00",22.4310,75.5213,SO2,10,15,12
India,"Madhya Pradesh",Gwalior,"Maharaj Bada, Gwalior - MPPCB","28-09-2025 17:00:00",26.200388,78.147714,CO,4,60,36
India,"Madhya Pradesh",Indore,"Airport Area, Indore - IMC","28-09-2025 17:00:00",22.7289,75.8076,PM2.5,NA,NA,NA
India,"Madhya Pradesh",Mandideep,"Sector-D Industrial Area, Mandideep - MPPCB","28-09-2025 17:00:00",23.108440,77.511428,CO,16,46,37
India,"Madhya Pradesh",Pithampur,"Sector-2 Industrial Area, Pithampur - MPPCB","28-09-2025 17:00:00",22.624758,75.675238,OZONE,24,46,29
India,"Madhya Pradesh",Jabalpur,"Suhagi, Jabalpur - JMC","28-09-2025 17:00:00",23.218135,79.957770,PM10,17,196,37
India,"Madhya Pradesh",Jabalpur,"Suhagi, Jabalpur - JMC","28-09-2025 17:00:00",23.218135,79.957770,SO2,8,10,9
India,"Madhya Pradesh",Maihar,"Sahilara, Maihar - KJS Cements","28-09-2025 17:00:00",24.2613009,80.7231783,NO2,13,14,13
India,"Madhya Pradesh",Maihar,"Sahilara, Maihar - KJS Cements","28-09-2025 17:00:00",24.2613009,80.7231783,CO,34,38,35
India,"Madhya Pradesh",Ratlam,"Shasthri Nagar, Ratlam - IPCA Lab","28-09-2025 17:00:00",23.331731,75.045981,SO2,9,11,10
India,"Madhya Pradesh",Katni,"Gole Bazar, Katni - MPPCB","28-09-2025 17:00:00",23.50016,80.23284,CO,15,34,30
India,Maharashtra,Kalyan,"Khadakpada, Kalyan - MPCB","28-09-2025 17:00:00",19.25292,73.142019,CO,10,14,11
India,Maharashtra,Kolhapur,"Shivaji University, Kolhapur - MPCB","28-09-2025 17:00:00",16.6870449,74.2505872,PM2.5,4,36,13
India,Maharashtra,Kolhapur,"Shivaji University, Kolhapur - MPCB","28-09-2025 17:00:00",16.6870449,74.2505872,NO2,2,36,17
India,Maharashtra,Kolhapur,"Sinchan Bhavan, Kolhapur - MPCB","28-09-2025 17:00:00",16.7143745,74.2426398,SO2,1,2,1
India,Maharashtra,Latur,"Sawe Wadi, Latur - MPCB","28-09-2025 17:00:00",18.39963,76.57452,PM2.5,7,51,22
India,Maharashtra,Latur,"Sawe Wadi, Latur - MPCB","28-09-2025 17:00:00",18.39963,76.57452,PM10,8,50,22
India,Maharashtra,Malegaon,"Mahesh Nagar, Malegaon - MPCB","28-09-2025 17:00:00",20.555712,74.529236,SO2,10,112,18
India,Maharashtra,Mira-Bhayandar,"Bhayandar West, Mira-Bhayandar - MPCB","28-09-2025 17:00:00",19.296481,72.840923,NO2,4,29,8
India,Maharashtra,Mira-Bhayandar,"Bhayandar West, Mira-Bhayandar - MPCB","28-09-2025 17:00:00",19.296481,72.840923,CO,25,38,34
India,Maharashtra,Mira-Bhayandar,"Bhayandar West, Mira-Bhayandar - MPCB","28-09-2025 17:00:00",19.296481,72.840923,OZONE,16,76,67
India,Maharashtra,Mumbai,"Bandra Kurla Complex, Mumbai - MPCB","28-09-2025 17:00:00",19.065931,72.862131,PM2.5,58,63,60
India,Maharashtra,Mumbai,"Bandra Kurla Complex, Mumbai - MPCB","28-09-2025 17:00:00",19.065931,72.862131,NH3,1,9,3
India,Maharashtra,Chandrapur,"MIDC Khutala, Chandrapur - MPCB","28-09-2025 17:00:00",19.9775302,79.2337086,PM10,13,130,54
India,Maharashtra,Dhule,"Deopur, Dhule - MPCB","28-09-2025 17:00:00",20.918946,74.776388,PM2.5,16,70,39
India,Maharashtra,Dhule,"Deopur, Dhule - MPCB","28-09-2025 17:00:00",20.918946,74.776388,SO2,6,14,10
India,Maharashtra,Jalgaon,"Prabhat Colony, Jalgaon - MPCB","28-09-2025 17:00:00",21.001264,75.565602,NO2,3,11,5
India,Maharashtra,Jalna,"Old MIDC, Jalna - MPCB","28-09-2025 17:00:00",19.854616,75.905894,SO2,NA,NA,NA
India,Maharashtra,Latur,"Sawe Wadi, Latur - MPCB","28-09-2025 17:00:00",18.39963,76.57452,CO,2,20,15
India,Maharashtra,Latur,"Sawe Wadi, Latur - MPCB","28-09-2025 17:00:00",18.39963,76.57452,OZONE,24,39,35
India,Maharashtra,Mahad,"Kamble Tarf Birwadi, Mahad - MPCB","28-09-2025 17:00:00",18.1023399,73.4783687,NO2,NA,NA,NA
India,Maharashtra,Malegaon,"Mahesh Nagar, Malegaon - MPCB","28-09-2025 17:00:00",20.555712,74.529236,PM2.5,25,37,31
India,Maharashtra,Malegaon,"Mahesh Nagar, Malegaon - MPCB","28-09-2025 17:00:00",20.555712,74.529236,PM10,46,91,61
India,Maharashtra,Belapur,"CBD Belapur, Belapur - MPCB","28-09-2025 17:00:00",19.0243902,73.0406721,NH3,3,9,6
India,Maharashtra,Bhiwandi,"Gokul Nagar, Bhiwandi - MPCB","28-09-2025 17:00:00",19.309073,73.057223,PM2.5,15,35,24
India,Maharashtra,Bhiwandi,"Gokul Nagar, Bhiwandi - MPCB","28-09-2025 17:00:00",19.309073,73.057223,OZONE,13,24,18
India,Maharashtra,Chandrapur,"Chauhan Colony, Chandrapur - MPCB","28-09-2025 17:00:00",19.962900,79.298714,PM2.5,8,90,20
India,Maharashtra,Mumbai,"Borivali East, Mumbai - IITM","28-09-2025 17:00:00",19.23241,72.86895,PM2.5,7,42,26
India,Maharashtra,Mumbai,"Borivali East, Mumbai - MPCB","28-09-2025 17:00:00",19.2243333,72.8658113,NO2,4,9,7
India,Maharashtra,Mumbai,"Borivali East, Mumbai - MPCB","28-09-2025 17:00:00",19.2243333,72.8658113,NH3,1,1,1
India,Maharashtra,Mumbai,"Borivali East, Mumbai - MPCB","28-09-2025 17:00:00",19.2243333,72.8658113,CO,2,3,2
India,Maharashtra,Mumbai,"Byculla, Mumbai - BMC","28-09-2025 17:00:00",18.9767,72.8380,PM2.5,8,29,15
India,Maharashtra,Amravati,"Shivneri Colony, Amravati - MPCB","28-09-2025 17:00:00",20.9402359,77.7895248,PM10,20,38,28
India,Maharashtra,Amravati,"Shivneri Colony, Amravati - MPCB","28-09-2025 17:00:00",20.9402359,77.7895248,NH3,1,2,2
India,Maharashtra,Amravati,"Shivneri Colony, Amravati - MPCB","28-09-2025 17:00:00",20.9402359,77.7895248,OZONE,2,29,21
India,Maharashtra,Aurangabad,"More Chowk Waluj, Aurangabad - MPCB","28-09-2025 17:00:00",19.8389439,75.244448,OZONE,25,29,27
India,Maharashtra,Aurangabad,"More Chowk Waluj, Aurangabad - MPCB","28-09-2025 17:00:00",19.8389439,75.244448,NO2,15,25,19
India,Maharashtra,Mumbai,"Ghatkopar, Mumbai - BMC","28-09-2025 17:00:00",19.083694,72.920967,OZONE,1,1,1
India,Maharashtra,Mumbai,"Kandivali West, Mumbai - BMC","28-09-2025 17:00:00",19.215859,72.831718,PM2.5,2,22,10
India,Maharashtra,Mumbai,"Kandivali West, Mumbai - BMC","28-09-2025 17:00:00",19.215859,72.831718,PM10,16,38,24
India,Maharashtra,Mumbai,"Kandivali West, Mumbai - BMC","28-09-2025 17:00:00",19.215859,72.831718,NH3,1,3,3
India,Maharashtra,Mumbai,"Kandivali West, Mumbai - BMC","28-09-2025 17:00:00",19.215859,72.831718,OZONE,2,68,61
India,Maharashtra,Mumbai,"Kherwadi_Bandra East, Mumbai - MPCB","28-09-2025 17:00:00",19.0632143,72.8456324,SO2,3,3,3
India,Maharashtra,Mumbai,"Khindipada-Bhandup West, Mumbai - IITM","28-09-2025 17:00:00",19.1653323,72.922099,PM10,2,24,11
India,Maharashtra,Mumbai,"Malad West, Mumbai - IITM","28-09-2025 17:00:00",19.19709,72.82204,NH3,9,9,9
India,Maharashtra,Mumbai,"Malad West, Mumbai - IITM","28-09-2025 17:00:00",19.19709,72.82204,OZONE,6,55,49
India,Maharashtra,Mumbai,"Mazgaon, Mumbai - IITM","28-09-2025 17:00:00",18.96702,72.84214,NH3,7,9,8
India,Maharashtra,Mumbai,"Mindspace-Malad West, Mumbai - MPCB","28-09-2025 17:00:00",19.1878657,72.8304069,PM2.5,24,26,25
India,Maharashtra,Mumbai,"Navy Nagar-Colaba, Mumbai - IITM","28-09-2025 17:00:00",18.897756,72.813320,PM2.5,26,70,47
India,Maharashtra,Mumbai,"Navy Nagar-Colaba, Mumbai - IITM","28-09-2025 17:00:00",18.897756,72.813320,PM10,44,55,49
India,Maharashtra,Mumbai,"Navy Nagar-Colaba, Mumbai - IITM","28-09-2025 17:00:00",18.897756,72.813320,NO2,9,22,13
India,Maharashtra,Mumbai,"Chakala-Andheri East, Mumbai - IITM","28-09-2025 17:00:00",19.11074,72.86084,CO,2,6,2
India,Maharashtra,Mumbai,"Chembur, Mumbai - MPCB","28-09-2025 17:00:00",19.0364585,72.8954371,PM2.5,14,40,23
India,Maharashtra,Mumbai,"Chembur, Mumbai - MPCB","28-09-2025 17:00:00",19.0364585,72.8954371,SO2,3,5,3
India,Maharashtra,Mumbai,"Chhatrapati Shivaji Intl. Airport (T2), Mumbai - MPCB","28-09-2025 17:00:00",19.10078,72.87462,SO2,20,21,21
India,Maharashtra,Mumbai,"Navy Nagar-Colaba, Mumbai - IITM","28-09-2025 17:00:00",18.897756,72.813320,CO,10,12,11
India,Maharashtra,Mumbai,"Shivaji Nagar, Mumbai - BMC","28-09-2025 17:00:00",19.060498,72.923356,PM10,11,68,34
India,Maharashtra,Mumbai,"Deonar, Mumbai - IITM","28-09-2025 17:00:00",19.04946,72.9230,CO,15,32,21
India,Maharashtra,Mumbai,"Ghatkopar, Mumbai - BMC","28-09-2025 17:00:00",19.083694,72.920967,PM2.5,21,37,27
India,Maharashtra,Mumbai,"Vasai West, Mumbai - MPCB","28-09-2025 17:00:00",19.383200,72.820400,PM2.5,2,32,19
India,Maharashtra,Mumbai,"Vasai West, Mumbai - MPCB","28-09-2025 17:00:00",19.383200,72.820400,PM10,6,38,24
India,Maharashtra,Mumbai,"Worli, Mumbai - MPCB","28-09-2025 17:00:00",18.9936162,72.8128113,PM2.5,57,61,59
India,Maharashtra,Mumbai,"Worli, Mumbai - MPCB","28-09-2025 17:00:00",18.9936162,72.8128113,PM10,47,62,56
India,Maharashtra,Mumbai,"Colaba, Mumbai - MPCB","28-09-2025 17:00:00",18.910000,72.820000,PM10,24,50,35
India,Maharashtra,Mumbai,"Colaba, Mumbai - MPCB","28-09-2025 17:00:00",18.910000,72.820000,CO,23,24,23
India,Maharashtra,Mumbai,"Siddharth Nagar-Worli, Mumbai - IITM","28-09-2025 17:00:00",19.000083,72.813993,NH3,5,5,5
India,Maharashtra,"Navi Mumbai","Sanpada, Navi Mumbai - MPCB","28-09-2025 17:00:00",19.0575752,73.0151367,NO2,6,14,9
India,Maharashtra,"Navi Mumbai","Sanpada, Navi Mumbai - MPCB","28-09-2025 17:00:00",19.0575752,73.0151367,OZONE,12,12,12
India,Maharashtra,"Navi Mumbai","Sector-2E Kalamboli, Navi Mumbai - MPCB","28-09-2025 17:00:00",19.02579,73.10297,NH3,2,3,3
India,Maharashtra,"Navi Mumbai","Tondare-Taloja, Navi Mumbai - MPCB","28-09-2025 17:00:00",19.0630,73.1209,NO2,12,33,22
India,Maharashtra,"Navi Mumbai","Tondare-Taloja, Navi Mumbai - MPCB","28-09-2025 17:00:00",19.0630,73.1209,NH3,4,12,8
India,Maharashtra,Parbhani,"Masoom Colony, Parbhani - MPCB","28-09-2025 17:00:00",19.265594,76.761463,PM2.5,5,37,13
India,Maharashtra,Pimpri-Chinchwad,"Savta Mali Nagar, Pimpri-Chinchwad - IITM","28-09-2025 17:00:00",18.614767,73.799516,PM2.5,10,37,16
India,Maharashtra,Pimpri-Chinchwad,"Thergaon, Pimpri Chinchwad - MPCB","28-09-2025 17:00:00",18.616318,73.765797,NH3,1,3,2
India,Maharashtra,Pune,"Bhumkar Nagar, Pune - IITM","28-09-2025 17:00:00",18.605770,73.749976,PM2.5,12,62,28
India,Maharashtra,Pune,"Bhumkar Nagar, Pune - IITM","28-09-2025 17:00:00",18.605770,73.749976,OZONE,6,36,30
India,Maharashtra,Pune,"Katraj Dairy, Pune - MPCB","28-09-2025 17:00:00",18.454450,73.854155,NH3,1,3,2
India,Maharashtra,Pune,"Katraj Dairy, Pune - MPCB","28-09-2025 17:00:00",18.454450,73.854155,CO,2,83,34
India,Maharashtra,Nashik,"Pandav Nagari, Nashik - MPCB","28-09-2025 17:00:00",19.9591346,73.7788008,PM2.5,7,61,22
India,Maharashtra,Nashik,"Pandav Nagari, Nashik - MPCB","28-09-2025 17:00:00",19.9591346,73.7788008,NO2,2,6,4
India,Maharashtra,Nashik,"Pandav Nagari, Nashik - MPCB","28-09-2025 17:00:00",19.9591346,73.7788008,OZONE,20,52,27
India,Maharashtra,"Navi Mumbai","Kopripada-Vashi, Navi Mumbai - MPCB","28-09-2025 17:00:00",19.090337,73.014232,NH3,1,4,3
India,Maharashtra,"Navi Mumbai","Kopripada-Vashi, Navi Mumbai - MPCB","28-09-2025 17:00:00",19.090337,73.014232,CO,7,21,12
India,Maharashtra,"Navi Mumbai","Kopripada-Vashi, Navi Mumbai - MPCB","28-09-2025 17:00:00",19.090337,73.014232,OZONE,2,56,41
India,Maharashtra,Nagpur,"Ambazari, Nagpur - MPCB","28-09-2025 17:00:00",21.121801,79.04952,CO,10,32,23
India,Maharashtra,Nagpur,"Ambazari, Nagpur - MPCB","28-09-2025 17:00:00",21.121801,79.04952,OZONE,4,27,20
India,Maharashtra,Nagpur,"Mahal, Nagpur - MPCB","28-09-2025 17:00:00",21.14472,79.107595,CO,17,103,38
India,Maharashtra,Nagpur,"Opp GPO Civil Lines, Nagpur - MPCB","28-09-2025 17:00:00",21.152875,79.0517531,PM2.5,13,44,24
India,Maharashtra,Nagpur,"Opp GPO Civil Lines, Nagpur - MPCB","28-09-2025 17:00:00",21.152875,79.0517531,SO2,3,7,5
India,Maharashtra,Nashik,"Gangapur Road, Nashik - MPCB","28-09-2025 17:00:00",20.0073285,73.7762427,SO2,1,7,3
India,Maharashtra,Nashik,"Hirawadi, Nashik - MPCB","28-09-2025 17:00:00",20.021503,73.813844,PM2.5,6,48,19
India,Maharashtra,Nashik,"MIDC Ambad, Nashik - MPCB","28-09-2025 17:00:00",19.950220,73.731480,PM2.5,10,56,29
India,Maharashtra,Nashik,"MIDC Ambad, Nashik - MPCB","28-09-2025 17:00:00",19.950220,73.731480,NH3,2,3,2
India,Maharashtra,Pune,"Mhada Colony, Pune - IITM","28-09-2025 17:00:00",18.573040,73.927715,PM10,19,41,26
India,Maharashtra,Pune,"Revenue Colony-Shivajinagar, Pune - IITM","28-09-2025 17:00:00",18.530085,73.849598,CO,138,158,150
India,Maharashtra,Pune,"Savitribai Phule Pune University, Pune - MPCB","28-09-2025 17:00:00",18.547056,73.826908,SO2,3,5,4
India,Maharashtra,Pimpri-Chinchwad,"Gavalinagar, Pimpri Chinchwad - MPCB","28-09-2025 17:00:00",18.63673,73.82487,PM10,17,80,33
India,Maharashtra,Pimpri-Chinchwad,"Park Street Wakad, Pimpri Chinchwad - MPCB","28-09-2025 17:00:00",18.59051,73.77946,NO2,3,10,7
India,Maharashtra,Nanded,"Sneh Nagar, Nanded - MPCB","28-09-2025 17:00:00",19.173852,77.296291,SO2,4,5,4
India,Maharashtra,Nagpur,"Ram Nagar, Nagpur - MPCB","28-09-2025 17:00:00",21.143383,79.048912,NO2,16,16,16
India,Maharashtra,Virar,"Bolinj, Virar - MPCB","28-09-2025 17:00:00",19.4458210,72.7988231,PM10,15,80,34
India,Meghalaya,Shillong,"JN Stadium, Shillong - Meghalaya PCB","28-09-2025 17:00:00",25.5803419,91.8942571,PM2.5,NA,NA,NA
India,Meghalaya,Shillong,"JN Stadium, Shillong - Meghalaya PCB","28-09-2025 17:00:00",25.5803419,91.8942571,PM10,NA,NA,NA
India,Meghalaya,Shillong,"JN Stadium, Shillong - Meghalaya PCB","28-09-2025 17:00:00",25.5803419,91.8942571,CO,11,32,13
India,Meghalaya,Shillong,"Lumpyngngad, Shillong - Meghalaya PCB","28-09-2025 17:00:00",25.5586,91.8985,PM10,3,17,10
India,Nagaland,Kohima,"PWD Junction, Kohima - NPCB","28-09-2025 17:00:00",25.6635413,94.0989878,PM2.5,14,158,37
India,Nagaland,Kohima,"PWD Junction, Kohima - NPCB","28-09-2025 17:00:00",25.6635413,94.0989878,NH3,1,1,1
India,Odisha,Bhubaneswar,"Patia, Bhubaneswar - OSPCB","28-09-2025 17:00:00",20.34652,85.81630,CO,31,52,35
India,Odisha,Bhubaneswar,"Patia, Bhubaneswar - OSPCB","28-09-2025 17:00:00",20.34652,85.81630,OZONE,6,17,15
India,Odisha,Bileipada,"Tata Township, Bileipada - OSPCB","28-09-2025 17:00:00",22.06156703,85.47409613,PM10,14,51,26
India,Odisha,Bileipada,"Tata Township, Bileipada - OSPCB","28-09-2025 17:00:00",22.06156703,85.47409613,OZONE,11,13,12
India,Odisha,Byasanagar,"Ferro Chrome Colony, Byasanagar - OSPCB","28-09-2025 17:00:00",20.94185,86.11510,NH3,1,1,1
India,Odisha,Byasanagar,"Ferro Chrome Colony, Byasanagar - OSPCB","28-09-2025 17:00:00",20.94185,86.11510,CO,16,33,22
India,Odisha,Cuttack,"CDA Area, Cuttack - OSPCB","28-09-2025 17:00:00","20.48891     ","85.84768     ",PM2.5,5,23,14
India,Maharashtra,Pune,"Transport Nagar-Nigdi, Pune - IITM","28-09-2025 17:00:00",18.664282,73.763966,OZONE,21,48,41
India,Maharashtra,Solapur,"Dnyaneshwar Nagar, Solapur - MPCB","28-09-2025 17:00:00",17.6336264,75.9132495,PM10,6,22,13
India,Odisha,Angul,"Hakimapada, Angul - OSPCB","28-09-2025 17:00:00",20.832874,85.104082,PM10,20,71,42
India,Odisha,Balasore,"Kalidaspur, Balasore - OSPCB","28-09-2025 17:00:00",21.51161,86.89088,NH3,1,2,1
India,Maharashtra,Pune,"Transport Nagar-Nigdi, Pune - IITM","28-09-2025 17:00:00",18.664282,73.763966,NO2,14,17,16
India,Odisha,Brajrajnagar,"GM Office, Brajrajnagar - OSPCB","28-09-2025 17:00:00",21.8004996,83.8396977,CO,12,18,14
India,Maharashtra,Thane,"Upvan Fort, Thane - MPCB","28-09-2025 17:00:00",19.222279,72.957979,OZONE,15,44,42
India,Odisha,Baripada,"Meher Colony, Baripada - OSPCB","28-09-2025 17:00:00",21.941841,86.728318,NH3,1,2,1
India,Punjab,Ludhiana,"Punjab Agricultural University, Ludhiana - PPCB","28-09-2025 17:00:00",30.9028,75.8086,PM2.5,61,73,65
India,Punjab,Ludhiana,"Punjab Agricultural University, Ludhiana - PPCB","28-09-2025 17:00:00",30.9028,75.8086,PM10,73,87,78
India,Punjab,"Mandi Gobindgarh","RIMT University, Mandi Gobindgarh - PPCB","28-09-2025 17:00:00",30.649961,76.331442,NH3,6,6,6
India,Punjab,"Mandi Gobindgarh","RIMT University, Mandi Gobindgarh - PPCB","28-09-2025 17:00:00",30.649961,76.331442,SO2,3,50,17
India,Punjab,Patiala,"Model Town, Patiala - PPCB","28-09-2025 17:00:00",30.349388,76.366642,PM10,56,99,78
India,Punjab,Patiala,"Model Town, Patiala - PPCB","28-09-2025 17:00:00",30.349388,76.366642,NH3,6,7,6
India,Punjab,Rupnagar,"Ratanpura, Rupnagar - Ambuja Cements","28-09-2025 17:00:00",31.0325454,76.5623046,PM2.5,25,191,59
India,Punjab,Rupnagar,"Ratanpura, Rupnagar - Ambuja Cements","28-09-2025 17:00:00",31.0325454,76.5623046,PM10,28,141,62
India,Punjab,Rupnagar,"Ratanpura, Rupnagar - Ambuja Cements","28-09-2025 17:00:00",31.0325454,76.5623046,NO2,4,5,5
India,Rajasthan,Ajmer,"Civil Lines,  Ajmer - RSPCB","28-09-2025 17:00:00",26.470859,74.646594,NH3,3,6,3
India,Rajasthan,Ajmer,"Civil Lines,  Ajmer - RSPCB","28-09-2025 17:00:00",26.470859,74.646594,OZONE,9,22,18
India,Rajasthan,Banswara,"Rati Talai, Banswara - RSPCB","28-09-2025 17:00:00",23.555190,74.440010,PM10,NA,NA,NA
India,Rajasthan,Banswara,"Rati Talai, Banswara - RSPCB","28-09-2025 17:00:00",23.555190,74.440010,OZONE,22,84,41
India,Rajasthan,Baran,"Bamboliya, Baran - RSPCB","28-09-2025 17:00:00",25.106006,76.469948,CO,16,28,19
India,Rajasthan,Barmer,"Railway Colony, Barmer - RSPCB","28-09-2025 17:00:00",25.747299,71.393989,NH3,2,3,3
India,Odisha,Rourkela,"Raghunathpali, Rourkela - OSPCB","28-09-2025 17:00:00",22.220833,84.809444,PM2.5,1,26,13
India,Odisha,Rourkela,"Raghunathpali, Rourkela - OSPCB","28-09-2025 17:00:00",22.220833,84.809444,NO2,8,13,9
India,Odisha,Talcher,"Talcher Coalfields,Talcher - OSPCB","28-09-2025 17:00:00",20.9360711,85.1707021,CO,1,56,2
India,Odisha,Tensa,"Barsua Iron Ore Mines, Tensa - OSPCB","28-09-2025 17:00:00",21.869985,85.167016,SO2,NA,NA,NA
India,Punjab,Amritsar,"Golden Temple, Amritsar - PPCB","28-09-2025 17:00:00",31.620000,74.876512,PM10,80,83,82
India,Punjab,Amritsar,"Golden Temple, Amritsar - PPCB","28-09-2025 17:00:00",31.620000,74.876512,SO2,17,24,20
India,Punjab,Jalandhar,"Civil Line, Jalandhar - PPCB","28-09-2025 17:00:00",31.321907,75.578914,OZONE,44,51,48
India,Punjab,Khanna,"Kalal Majra, Khanna - PPCB","28-09-2025 17:00:00","30.736056 ",76.209694,SO2,4,6,5
India,Odisha,Nayagarh,"Dabuna, Nayagarh - OSPCB","28-09-2025 17:00:00",21.847279,85.416905,SO2,2,4,2
India,Odisha,Rairangpur,"Divisional Forest Office, Rairangpur - OSPCB","28-09-2025 17:00:00",22.265816,86.174829,PM2.5,26,41,30
India,Odisha,Keonjhar,"Jagamohanpur, Keonjhar - OSPCB","28-09-2025 17:00:00",21.643900,85.599355,NO2,13,18,15
India,Odisha,Nayagarh,"Dabuna, Nayagarh - OSPCB","28-09-2025 17:00:00",21.847279,85.416905,PM2.5,15,18,17
India,Odisha,Tensa,"Barsua Iron Ore Mines, Tensa - OSPCB","28-09-2025 17:00:00",21.869985,85.167016,CO,NA,NA,NA
India,Odisha,Keonjhar,"Jagamohanpur, Keonjhar - OSPCB","28-09-2025 17:00:00",21.643900,85.599355,PM10,27,43,33
India,Odisha,Cuttack,"CDA Area, Cuttack - OSPCB","28-09-2025 17:00:00","20.48891     ","85.84768     ",NH3,1,3,1
India,Rajasthan,Bhilwara,"Pratap Nagar, Bhilwara - RSPCB","28-09-2025 17:00:00",25.339605,74.618883,SO2,11,22,15
India,Rajasthan,Bhiwadi,"RIICO Ind. Area III, Bhiwadi - RSPCB","28-09-2025 17:00:00",28.194909,76.862296,PM10,16,181,102
India,Rajasthan,Bhiwadi,"RIICO Ind. Area III, Bhiwadi - RSPCB","28-09-2025 17:00:00",28.194909,76.862296,NO2,22,48,35
India,Rajasthan,Bhiwadi,"RIICO Ind. Area III, Bhiwadi - RSPCB","28-09-2025 17:00:00",28.194909,76.862296,CO,20,162,64
India,Rajasthan,Bhiwadi,"Vasundhara Nagar_UIT, Bhiwadi - RSPCB","28-09-2025 17:00:00",28.207266,76.829265,PM2.5,26,308,130
India,Rajasthan,Bhiwadi,"Vasundhara Nagar_UIT, Bhiwadi - RSPCB","28-09-2025 17:00:00",28.207266,76.829265,NH3,2,7,5
India,Rajasthan,Bikaner,"MM Ground, Bikaner - RSPCB","28-09-2025 17:00:00",28.018792,73.292658,PM2.5,34,74,58
India,Rajasthan,Bikaner,"MM Ground, Bikaner - RSPCB","28-09-2025 17:00:00",28.018792,73.292658,PM10,105,232,156
India,Rajasthan,Jaipur,"Adarsh Nagar, Jaipur - RSPCB","28-09-2025 17:00:00",26.902909,75.836858,SO2,11,29,21
India,Rajasthan,Jaipur,"Mansarovar Sector-12, Jaipur - RSPCB","28-09-2025 17:00:00",26.843698,75.766894,PM10,40,136,88
India,Rajasthan,Jaipur,"Mansarovar Sector-12, Jaipur - RSPCB","28-09-2025 17:00:00",26.843698,75.766894,CO,23,48,26
India,Rajasthan,Jaipur,"Police Commissionerate, Jaipur - RSPCB","28-09-2025 17:00:00",26.9164092,75.7994901,PM10,49,137,88
India,Rajasthan,Jaipur,"Police Commissionerate, Jaipur - RSPCB","28-09-2025 17:00:00",26.9164092,75.7994901,SO2,7,11,9
India,Rajasthan,Barmer,"Railway Colony, Barmer - RSPCB","28-09-2025 17:00:00",25.747299,71.393989,CO,8,44,25
India,Rajasthan,Bharatpur,"Krishna Nagar, Bharatpur - RSPCB","28-09-2025 17:00:00",27.215415,77.50873,PM10,24,94,54
India,Rajasthan,Bhilwara,"Pratap Nagar, Bhilwara - RSPCB","28-09-2025 17:00:00",25.339605,74.618883,PM2.5,10,100,68
India,Rajasthan,Chittorgarh,"Shastri Nagar, Chittorgarh - RSPCB","28-09-2025 17:00:00",24.892047,74.623527,CO,6,48,10
India,Rajasthan,Churu,"Subash Chowk, Churu - RSPCB","28-09-2025 17:00:00",28.296139,74.961696,PM2.5,9,70,42
India,Rajasthan,Dausa,"Khatikan Mohalla, Dausa - RSPCB","28-09-2025 17:00:00",26.895552,76.334753,PM2.5,28,123,57
India,Rajasthan,Dholpur,"Raja Ganj, Dholpur - RSPCB","28-09-2025 17:00:00",26.699557,77.898881,CO,4,48,6
India,Rajasthan,Dungarpur,"Bhoiwada, Dungarpur - RSPCB","28-09-2025 17:00:00",23.837789,73.714926,NO2,4,20,10
India,Rajasthan,Jaipur,"Adarsh Nagar, Jaipur - RSPCB","28-09-2025 17:00:00",26.902909,75.836858,PM10,49,127,87
India,Rajasthan,Jaipur,"RIICO Sitapura, Jaipur - RSPCB","28-09-2025 17:00:00",26.786682,75.827928,PM2.5,32,160,69
India,Rajasthan,Jaipur,"RIICO Sitapura, Jaipur - RSPCB","28-09-2025 17:00:00",26.786682,75.827928,SO2,11,17,13
India,Rajasthan,Jaipur,"Sector-2 Murlipura, Jaipur - RSPCB","28-09-2025 17:00:00",26.960669,75.771817,NO2,13,21,15
India,Rajasthan,Jaipur,"Sector-2 Murlipura, Jaipur - RSPCB","28-09-2025 17:00:00",26.960669,75.771817,CO,22,60,25
India,Rajasthan,Jaipur,"Shastri Nagar, Jaipur - RSPCB","28-09-2025 17:00:00",26.9502929,75.730943,NO2,42,76,56
India,Rajasthan,Bundi,"New Colony, Bundi - RSPCB","28-09-2025 17:00:00",25.435774,75.644272,PM2.5,8,63,32
India,Rajasthan,Bundi,"New Colony, Bundi - RSPCB","28-09-2025 17:00:00",25.435774,75.644272,NO2,3,18,6
India,Rajasthan,Dholpur,"Raja Ganj, Dholpur - RSPCB","28-09-2025 17:00:00",26.699557,77.898881,PM10,12,102,57
India,Rajasthan,Tonk,"Shastri Nagar, Tonk - RSPCB","28-09-2025 17:00:00",26.159933,75.780517,NO2,2,23,8
India,Rajasthan,Tonk,"Shastri Nagar, Tonk - RSPCB","28-09-2025 17:00:00",26.159933,75.780517,SO2,10,16,14
India,Rajasthan,Udaipur,"Ashok Nagar, Udaipur - RSPCB","28-09-2025 17:00:00",24.5886166,73.6321397,NO2,2,41,15
India,Rajasthan,Udaipur,"Ashok Nagar, Udaipur - RSPCB","28-09-2025 17:00:00",24.5886166,73.6321397,CO,6,77,37
India,Rajasthan,Udaipur,"Ashok Nagar, Udaipur - RSPCB","28-09-2025 17:00:00",24.5886166,73.6321397,OZONE,2,78,53
India,Rajasthan,Jaisalmer,"Sadar Bazar, Jaisalmer - RSPCB","28-09-2025 17:00:00",26.912329,70.909168,PM2.5,15,88,45
India,Rajasthan,Jalore,"Mudtra Sili, Jalore - RSPCB","28-09-2025 17:00:00",25.344694,72.626208,PM2.5,25,68,44
India,Rajasthan,Jhalawar,"Rajlaxmi Nagar, Jhalawar - RSPCB","28-09-2025 17:00:00",24.588397,76.172782,CO,3,6,4
India,Rajasthan,Jhalawar,"Rajlaxmi Nagar, Jhalawar - RSPCB","28-09-2025 17:00:00",24.588397,76.172782,OZONE,32,75,45
India,Rajasthan,Sikar,"Radhakishan Pura, Sikar - RSPCB","28-09-2025 17:00:00",27.608912,75.153302,SO2,3,5,4
India,Rajasthan,Sirohi,"Vedhaynath Colony, Sirohi - RSPCB","28-09-2025 17:00:00",24.885261,72.857549,NH3,3,9,5
India,Rajasthan,Sirohi,"Vedhaynath Colony, Sirohi - RSPCB","28-09-2025 17:00:00",24.885261,72.857549,SO2,5,7,5
India,Rajasthan,"Sri Ganganagar","Old City, Sri Ganganagar - RSPCB","28-09-2025 17:00:00",29.931624,73.864511,NO2,22,62,32
India,Rajasthan,Pratapgarh,"Pragati Nagar, Pratapgarh - RSPCB","28-09-2025 17:00:00",24.041198,74.780702,PM10,15,106,57
India,Rajasthan,Pratapgarh,"Pragati Nagar, Pratapgarh - RSPCB","28-09-2025 17:00:00",24.041198,74.780702,NH3,3,5,4
India,Rajasthan,Pratapgarh,"Pragati Nagar, Pratapgarh - RSPCB","28-09-2025 17:00:00",24.041198,74.780702,SO2,2,4,2
India,Rajasthan,Rajsamand,"Dhoinda, Rajsamand - RSPCB","28-09-2025 17:00:00",25.036360,73.883502,NH3,9,14,12
India,Rajasthan,Kota,"Shrinath Puram, Kota - RSPCB","28-09-2025 17:00:00",25.14389,75.821256,PM2.5,40,194,95
India,Rajasthan,Kota,"Shrinath Puram, Kota - RSPCB","28-09-2025 17:00:00",25.14389,75.821256,NO2,11,14,13
India,Rajasthan,Kota,"Shrinath Puram, Kota - RSPCB","28-09-2025 17:00:00",25.14389,75.821256,SO2,2,9,6
India,Rajasthan,Nagaur,"Karni Colony, Nagaur - RSPCB","28-09-2025 17:00:00",27.213494,73.734444,NH3,10,17,14
India,Rajasthan,Jodhpur,"Mandor, Jodhpur - RSPCB","28-09-2025 17:00:00",26.358805,73.047444,CO,10,26,21
India,Rajasthan,Jodhpur,"Samrat Ashok Udhyan, Jodhpur - RSPCB","28-09-2025 17:00:00",26.253384,72.976571,CO,22,39,28
India,Rajasthan,Karauli,"Satyawati Vihar, Karauli - RSPCB","28-09-2025 17:00:00",26.506177,77.025989,CO,23,39,32
India,Rajasthan,Jhunjhunu,"Indra Nagar, Jhunjhunu - RSPCB","28-09-2025 17:00:00",28.108988,75.386577,OZONE,32,92,49
India,Rajasthan,Jodhpur,"Collectorate, Jodhpur - RSPCB","28-09-2025 17:00:00",26.268249,73.0193853,PM10,NA,NA,NA
India,Rajasthan,Kota,"Dhanmandi, Kota - RSPCB","28-09-2025 17:00:00",25.164090,75.858137,CO,4,11,6
India,Rajasthan,Kota,"Nayapura, Kota - RSPCB","28-09-2025 17:00:00",25.196024,75.855668,NO2,9,45,17
India,Rajasthan,Jodhpur,"Collectorate, Jodhpur - RSPCB","28-09-2025 17:00:00",26.268249,73.0193853,OZONE,12,22,16
India,TamilNadu,Chennai,"Perungudi, Chennai - TNPCB","28-09-2025 17:00:00",12.9533,80.2357,PM2.5,5,46,19
India,TamilNadu,Chennai,"Perungudi, Chennai - TNPCB","28-09-2025 17:00:00",12.9533,80.2357,NO2,1,4,2
India,TamilNadu,Chennai,"Perungudi, Chennai - TNPCB","28-09-2025 17:00:00",12.9533,80.2357,CO,20,32,25
India,TamilNadu,Chennai,"Royapuram, Chennai - TNPCB","28-09-2025 17:00:00",13.1036,80.2909,PM10,37,88,56
India,TamilNadu,Chennai,"Velachery Res. Area, Chennai - CPCB","28-09-2025 17:00:00",13.0052189,80.2398125,NH3,4,5,4
India,TamilNadu,Chennai,"Velachery Res. Area, Chennai - CPCB","28-09-2025 17:00:00",13.0052189,80.2398125,CO,46,52,49
India,TamilNadu,Perundurai,"SIPCOT Industrial Park, Perundurai - TNPCB","28-09-2025 17:00:00",11.258242,77.552761,PM2.5,14,37,27
India,TamilNadu,Perundurai,"SIPCOT Industrial Park, Perundurai - TNPCB","28-09-2025 17:00:00",11.258242,77.552761,NH3,2,3,2
India,TamilNadu,Pudukottai,"SIPCOT Nathampannai, Pudukottai - TNPCB","28-09-2025 17:00:00",10.423417,78.784889,PM10,18,43,30
India,TamilNadu,Ramanathapuram,"Chalai Bazaar, Ramanathapuram - TNPCB","28-09-2025 17:00:00",9.36399,78.831977,NO2,14,14,14
India,TamilNadu,Chennai,"Manali Village, Chennai - TNPCB","28-09-2025 17:00:00",13.1662,80.2584,PM10,23,48,33
India,TamilNadu,Chennai,"Manali Village, Chennai - TNPCB","28-09-2025 17:00:00",13.1662,80.2584,NH3,1,2,1
India,TamilNadu,Chennai,"Manali Village, Chennai - TNPCB","28-09-2025 17:00:00",13.1662,80.2584,CO,13,24,16
India,TamilNadu,Chennai,"Manali Village, Chennai - TNPCB","28-09-2025 17:00:00",13.1662,80.2584,OZONE,27,43,34
India,TamilNadu,Chennai,"Manali, Chennai - CPCB","28-09-2025 17:00:00",13.164544,80.26285,SO2,10,20,15
India,TamilNadu,Coimbatore,"SIDCO Kurichi, Coimbatore - TNPCB","28-09-2025 17:00:00",10.942451,76.978996,SO2,19,20,19
India,TamilNadu,Coimbatore,"SIDCO Kurichi, Coimbatore - TNPCB","28-09-2025 17:00:00",10.942451,76.978996,OZONE,1,23,11
India,TamilNadu,Cuddalore,"Kudikadu, Cuddalore - TNPCB","28-09-2025 17:00:00",11.6829898,79.7532099,SO2,18,19,19
India,TamilNadu,Cuddalore,"Semmandalam, Cuddalore - TNPCB","28-09-2025 17:00:00",11.7637683,79.7499835,PM2.5,14,77,38
India,TamilNadu,Karur,"Kamadenu Nagar, Karur - TNPCB","28-09-2025 17:00:00",10.967820,78.080882,OZONE,6,9,7
India,TamilNadu,Madurai,"Uchapatti, Madurai - TNPCB","28-09-2025 17:00:00",9.865935,78.022669,NO2,16,16,16
India,TamilNadu,Madurai,"Uchapatti, Madurai - TNPCB","28-09-2025 17:00:00",9.865935,78.022669,NH3,4,4,4
India,TamilNadu,Madurai,"Uchapatti, Madurai - TNPCB","28-09-2025 17:00:00",9.865935,78.022669,OZONE,6,6,6
India,TamilNadu,Chengalpattu,"Crescent University, Chengalpattu - TNPCB","28-09-2025 17:00:00",12.8777316,80.0834807,CO,5,6,6
India,TamilNadu,Chennai,"Alandur Bus Depot, Chennai - CPCB","28-09-2025 17:00:00",12.9099161,80.1076538,SO2,15,16,15
India,TamilNadu,Nagapattinam,"Velippalayam, Nagapattinam - TNPCB","28-09-2025 17:00:00",10.798548,79.838212,NH3,NA,NA,NA
India,TamilNadu,Ooty,"Bombay Castel, Ooty - TNPCB","28-09-2025 17:00:00",11.4068288,76.7138973,NH3,1,16,5
India,TamilNadu,Kanchipuram,"Kilambi, Kanchipuram - TNPCB","28-09-2025 17:00:00",12.864618,79.659968,PM10,26,69,42
India,TamilNadu,Kanchipuram,"Kilambi, Kanchipuram - TNPCB","28-09-2025 17:00:00",12.864618,79.659968,NO2,11,32,19
India,TamilNadu,Ariyalur,"Keelapalur, Ariyalur - TNPCB","28-09-2025 17:00:00",11.06825,79.07033,PM10,NA,NA,NA
India,Telangana,Hyderabad,"ECIL Kapra, Hyderabad - TSPCB","28-09-2025 17:00:00",17.470431,78.566959,OZONE,11,33,26
India,Telangana,Hyderabad,"ICRISAT Patancheru, Hyderabad - TSPCB","28-09-2025 17:00:00",17.518400,78.278777,NO2,3,6,5
India,Telangana,Hyderabad,"ICRISAT Patancheru, Hyderabad - TSPCB","28-09-2025 17:00:00",17.518400,78.278777,CO,8,14,11
India,Telangana,Hyderabad,"IDA Pashamylaram, Hyderabad - TSPCB","28-09-2025 17:00:00",17.5316895,78.218939,NH3,NA,NA,NA
India,Telangana,Hyderabad,"IITH Kandi, Hyderabad - TSPCB","28-09-2025 17:00:00",17.585705,78.126199,NO2,12,13,13
India,Telangana,Hyderabad,"IITH Kandi, Hyderabad - TSPCB","28-09-2025 17:00:00",17.585705,78.126199,NH3,5,6,5
India,Telangana,Hyderabad,"Kokapet, Hyderabad - TSPCB","28-09-2025 17:00:00",17.393559,78.339194,PM2.5,39,48,43
India,Telangana,Hyderabad,"Kokapet, Hyderabad - TSPCB","28-09-2025 17:00:00",17.393559,78.339194,SO2,10,14,12
India,Telangana,Hyderabad,"Kompally Municipal Office, Hyderabad - TSPCB","28-09-2025 17:00:00",17.544899,78.486949,CO,8,13,10
India,Telangana,Hyderabad,"Nacharam_TSIIC IALA, Hyderabad - TSPCB","28-09-2025 17:00:00",17.429398,78.569354,SO2,9,15,11
India,Telangana,Hyderabad,"Nacharam_TSIIC IALA, Hyderabad - TSPCB","28-09-2025 17:00:00",17.429398,78.569354,CO,21,38,30
India,Telangana,Hyderabad,"New Malakpet, Hyderabad - TSPCB","28-09-2025 17:00:00",17.37206,78.50864,SO2,15,16,16
India,Telangana,Hyderabad,"Somajiguda, Hyderabad - TSPCB","28-09-2025 17:00:00",17.417094,78.457437,NH3,3,4,4
India,Tripura,Agartala,"Bardowali, Agartala - Tripura SPCB","28-09-2025 17:00:00",23.8175497,91.2726974,PM2.5,20,54,38
India,Tripura,Agartala,"Bardowali, Agartala - Tripura SPCB","28-09-2025 17:00:00",23.8175497,91.2726974,OZONE,6,6,6
India,Uttar_Pradesh,Agra,"Manoharpur, Agra - UPPCB","28-09-2025 17:00:00",27.23711,78.01936,CO,35,108,53
India,TamilNadu,Tiruchirappalli,"St Joseph College, Tiruchirappalli - TNPCB","28-09-2025 17:00:00",10.830158,78.691849,NO2,3,8,5
India,TamilNadu,Tiruchirappalli,"St Joseph College, Tiruchirappalli - TNPCB","28-09-2025 17:00:00",10.830158,78.691849,NH3,1,4,2
India,TamilNadu,Tirunelveli,"Municipal Corporation Office, Tirunelveli - TNPCB","28-09-2025 17:00:00",8.728442,77.6962,PM2.5,10,25,20
India,TamilNadu,Tirunelveli,"Municipal Corporation Office, Tirunelveli - TNPCB","28-09-2025 17:00:00",8.728442,77.6962,NO2,8,38,20
India,TamilNadu,Tirunelveli,"Municipal Corporation Office, Tirunelveli - TNPCB","28-09-2025 17:00:00",8.728442,77.6962,NH3,2,13,6
India,TamilNadu,Vellore,"Vasanthapuram, Vellore - TNPCB","28-09-2025 17:00:00",12.909494,79.131861,OZONE,2,55,42
India,TamilNadu,Virudhunagar,"Collectorate Office, Virudhunagar - TNPCB","28-09-2025 17:00:00",9.559382,77.948828,NH3,4,8,7
India,TamilNadu,Virudhunagar,"Collectorate Office, Virudhunagar - TNPCB","28-09-2025 17:00:00",9.559382,77.948828,SO2,20,25,20
India,Telangana,Hyderabad,"Bollaram Industrial Area, Hyderabad - TSPCB","28-09-2025 17:00:00",17.540891,78.358528,SO2,5,9,7
India,TamilNadu,Ranipet,"VOC Nagar_SIPCOT, Ranipet - TNPCB","28-09-2025 17:00:00",12.952707,79.30394,NH3,7,8,8
India,TamilNadu,Salem,"Sona College of Technology, Salem - TNPCB","28-09-2025 17:00:00",11.679111,78.125052,SO2,31,31,31
India,TamilNadu,Thanjavur,"Parisutham Nagar, Thanjavur - TNPCB","28-09-2025 17:00:00",10.7654824,79.1389968,PM2.5,8,45,20
India,Uttar_Pradesh,Agra,"Rohta, Agra - UPPCB","28-09-2025 17:00:00",27.106972,78.000111,CO,24,32,26
India,Uttar_Pradesh,Agra,"Rohta, Agra - UPPCB","28-09-2025 17:00:00",27.106972,78.000111,OZONE,11,12,12
India,Uttar_Pradesh,Agra,"Sector-3B Avas Vikas Colony, Agra - UPPCB","28-09-2025 17:00:00",27.19412,77.96237,PM10,35,89,61
India,Telangana,Hyderabad,"Central University, Hyderabad - TSPCB","28-09-2025 17:00:00",17.460103,78.334361,NO2,14,85,52
India,Telangana,Hyderabad,"Central University, Hyderabad - TSPCB","28-09-2025 17:00:00",17.460103,78.334361,NH3,2,13,8
India,Uttar_Pradesh,Agra,"Sector-3B Avas Vikas Colony, Agra - UPPCB","28-09-2025 17:00:00",27.19412,77.96237,CO,20,42,22
India,Uttar_Pradesh,Agra,"Shahjahan Garden, Agra - UPPCB","28-09-2025 17:00:00",27.169338,78.03582,SO2,35,45,39
India,Uttar_Pradesh,Agra,"Shastripuram, Agra - UPPCB","28-09-2025 17:00:00",27.19862,77.92066,PM10,53,123,74
India,Uttar_Pradesh,Baghpat,"Sardar Patel Inter College, Baghpat - UPPCB","28-09-2025 17:00:00",28.964949,77.278761,CO,34,82,45
India,Uttar_Pradesh,Bulandshahr,"Yamunapuram, Bulandshahr - UPPCB","28-09-2025 17:00:00",28.406963,77.849831,PM2.5,15,160,48
India,Uttar_Pradesh,Bulandshahr,"Yamunapuram, Bulandshahr - UPPCB","28-09-2025 17:00:00",28.406963,77.849831,SO2,4,9,7
India,Uttar_Pradesh,Firozabad,"Nagla Bhau, Firozabad - UPPCB","28-09-2025 17:00:00",27.168897,78.376960,PM10,17,33,24
India,Uttar_Pradesh,Gorakhpur,"Madan Mohan Malaviya University of Technology, Gorakhpur - UPPCB","28-09-2025 17:00:00",26.730136,83.433859,NO2,11,12,11
India,Uttar_Pradesh,Gorakhpur,"Madan Mohan Malaviya University of Technology, Gorakhpur - UPPCB","28-09-2025 17:00:00",26.730136,83.433859,NH3,1,1,1
India,Uttar_Pradesh,"Greater Noida","Knowledge Park - III, Greater Noida - UPPCB","28-09-2025 17:00:00",28.47272,77.482000,NH3,8,11,10
India,Uttar_Pradesh,Ghaziabad,"Vasundhara, Ghaziabad - UPPCB","28-09-2025 17:00:00",28.6603346,77.3572563,OZONE,22,67,35
India,Uttar_Pradesh,Ghaziabad,"Sanjay Nagar, Ghaziabad - UPPCB","28-09-2025 17:00:00",28.685382,77.453839,NO2,23,94,47
India,Uttar_Pradesh,Hapur,"Anand Vihar, Hapur - UPPCB","28-09-2025 17:00:00",28.725645,77.749675,NO2,8,104,38
India,Uttar_Pradesh,Ghaziabad,"Loni, Ghaziabad - UPPCB","28-09-2025 17:00:00",28.757294,77.278792,CO,49,102,60
India,Uttar_Pradesh,Jhansi,"Shivaji Nagar, Jhansi - UPPCB","28-09-2025 17:00:00",25.4547,78.6039,SO2,8,12,9
India,Uttar_Pradesh,Firozabad,"Vibhab Nagar, Firozabad - UPPCB","28-09-2025 17:00:00",27.1594,78.3953,NH3,2,2,2
India,Uttar_Pradesh,Kanpur,"Nehru Nagar, Kanpur - UPPCB","28-09-2025 17:00:00",26.4703136,80.3229863,CO,48,71,51
India,Uttar_Pradesh,Kanpur,"Nehru Nagar, Kanpur - UPPCB","28-09-2025 17:00:00",26.4703136,80.3229863,OZONE,6,38,18
India,Uttar_Pradesh,Khurja,"Kalindi Kunj, Khurja - UPPCB","28-09-2025 17:00:00",28.2348927,77.8683002,PM2.5,18,51,30
India,Uttar_Pradesh,Khurja,"Kalindi Kunj, Khurja - UPPCB","28-09-2025 17:00:00",28.2348927,77.8683002,PM10,32,66,44
India,Uttar_Pradesh,Khurja,"Kalindi Kunj, Khurja - UPPCB","28-09-2025 17:00:00",28.2348927,77.8683002,CO,28,48,35
India,Uttar_Pradesh,Lucknow,"B R Ambedkar University, Lucknow - UPPCB","28-09-2025 17:00:00",26.766433,80.927299,CO,61,72,64
India,Uttar_Pradesh,Lucknow,"B R Ambedkar University, Lucknow - UPPCB","28-09-2025 17:00:00",26.766433,80.927299,OZONE,30,36,32
India,Uttar_Pradesh,Lucknow,"Gomti Nagar, Lucknow - UPPCB","28-09-2025 17:00:00",26.868120,81.005119,SO2,10,11,10
India,Uttar_Pradesh,Lucknow,"Lalbagh, Lucknow - CPCB","28-09-2025 17:00:00",26.8458805,80.9365541,CO,10,126,67
India,Uttar_Pradesh,Lucknow,"Lalbagh, Lucknow - CPCB","28-09-2025 17:00:00",26.8458805,80.9365541,OZONE,3,19,11
India,Uttar_Pradesh,Meerut,"Ganga Nagar, Meerut - UPPCB","28-09-2025 17:00:00",28.999264,77.7590354,PM10,57,201,130
India,Uttar_Pradesh,Meerut,"Ganga Nagar, Meerut - UPPCB","28-09-2025 17:00:00",28.999264,77.7590354,NO2,29,50,36
India,Uttar_Pradesh,Meerut,"Jai Bhim Nagar, Meerut - UPPCB","28-09-2025 17:00:00",28.9535882,77.7622941,PM2.5,15,232,89
India,Uttar_Pradesh,Meerut,"Jai Bhim Nagar, Meerut - UPPCB","28-09-2025 17:00:00",28.9535882,77.7622941,NO2,12,36,22
India,Uttar_Pradesh,Meerut,"Jai Bhim Nagar, Meerut - UPPCB","28-09-2025 17:00:00",28.9535882,77.7622941,NH3,3,6,4
India,Uttar_Pradesh,Moradabad,"Jigar Colony, Moradabad - UPPCB","28-09-2025 17:00:00",28.856664,78.772638,OZONE,18,20,19
India,Uttar_Pradesh,Moradabad,"Kashiram Nagar, Moradabad - UPPCB","28-09-2025 17:00:00",28.849399,78.742362,PM2.5,36,102,69
India,Uttar_Pradesh,Moradabad,"Transport Nagar, Moradabad - UPPCB","28-09-2025 17:00:00",28.802625,78.753728,PM2.5,37,161,66
India,Uttar_Pradesh,Moradabad,"Transport Nagar, Moradabad - UPPCB","28-09-2025 17:00:00",28.802625,78.753728,PM10,NA,NA,NA
India,Uttar_Pradesh,Muzaffarnagar,"New Mandi, Muzaffarnagar - UPPCB","28-09-2025 17:00:00",29.4723508,77.7194031,PM2.5,30,325,118
India,Uttar_Pradesh,Muzaffarnagar,"New Mandi, Muzaffarnagar - UPPCB","28-09-2025 17:00:00",29.4723508,77.7194031,NO2,10,52,26
India,Uttar_Pradesh,Meerut,"Jai Bhim Nagar, Meerut - UPPCB","28-09-2025 17:00:00",28.9535882,77.7622941,CO,28,70,31
India,Uttar_Pradesh,Meerut,"Pallavpuram Phase 2, Meerut - UPPCB","28-09-2025 17:00:00",29.063510,77.709723,PM10,53,213,113
India,Uttar_Pradesh,Meerut,"Pallavpuram Phase 2, Meerut - UPPCB","28-09-2025 17:00:00",29.063510,77.709723,NH3,4,9,5
India,Uttar_Pradesh,Moradabad,"Buddhi Vihar, Moradabad - UPPCB","28-09-2025 17:00:00",28.83526,78.74460,NH3,5,5,5
India,Uttar_Pradesh,Moradabad,"Buddhi Vihar, Moradabad - UPPCB","28-09-2025 17:00:00",28.83526,78.74460,OZONE,10,41,26
India,Uttar_Pradesh,Moradabad,"Eco Herbal Park, Moradabad - UPPCB","28-09-2025 17:00:00",28.840739,78.697531,NH3,2,4,3
India,Uttar_Pradesh,Lucknow,"Kukrail Picnic Spot-1, Lucknow - UPPCB","28-09-2025 17:00:00",26.90723,80.98579,CO,18,26,21
India,Uttar_Pradesh,Lucknow,"Lalbagh, Lucknow - CPCB","28-09-2025 17:00:00",26.8458805,80.9365541,PM2.5,8,168,66
India,Uttar_Pradesh,Kanpur,"FTI Kidwai Nagar, Kanpur - UPPCB","28-09-2025 17:00:00",26.428282,80.327067,NH3,2,2,2
India,Uttar_Pradesh,Kanpur,"FTI Kidwai Nagar, Kanpur - UPPCB","28-09-2025 17:00:00",26.428282,80.327067,SO2,15,20,17
India,Uttar_Pradesh,Lucknow,"Kukrail Picnic Spot-1, Lucknow - UPPCB","28-09-2025 17:00:00",26.90723,80.98579,SO2,23,25,24
India,Uttar_Pradesh,Lucknow,"Kendriya Vidyalaya, Lucknow - CPCB","28-09-2025 17:00:00",26.906111,80.948222,NH3,NA,NA,NA
India,Uttar_Pradesh,Kanpur,"NSI Kalyanpur, Kanpur - UPPCB","28-09-2025 17:00:00",26.509954,80.249612,NH3,2,2,2
India,Uttar_Pradesh,Noida,"Sector-116, Noida - UPPCB","28-09-2025 17:00:00",28.569230,77.393848,NH3,9,20,12
India,Uttar_Pradesh,Prayagraj,"Jhunsi, Prayagraj - UPPCB","28-09-2025 17:00:00",25.425602,81.917152,PM2.5,11,31,20
India,Uttar_Pradesh,Prayagraj,"Jhunsi, Prayagraj - UPPCB","28-09-2025 17:00:00",25.425602,81.917152,NH3,5,5,5
India,Uttar_Pradesh,Prayagraj,"Motilal Nehru NIT, Prayagraj - UPPCB","28-09-2025 17:00:00",25.494,81.863,PM2.5,12,37,21
India,Uttar_Pradesh,Prayagraj,"Motilal Nehru NIT, Prayagraj - UPPCB","28-09-2025 17:00:00",25.494,81.863,NH3,8,8,8
India,Uttar_Pradesh,Prayagraj,"Nagar Nigam, Prayagraj - UPPCB","28-09-2025 17:00:00","25.44919916 ","81.82735986 ",PM10,23,42,32
India,Uttar_Pradesh,Varanasi,"IESD Banaras Hindu University, Varanasi - UPPCB","28-09-2025 17:00:00",25.262326,82.995408,NO2,2,2,2
India,Uttarakhand,Dehradun,"Doon University, Dehradun - UKPCB","28-09-2025 17:00:00",30.269444,78.044167,NO2,1,3,1
India,Uttarakhand,Dehradun,"Doon University, Dehradun - UKPCB","28-09-2025 17:00:00",30.269444,78.044167,OZONE,14,25,22
India,Uttarakhand,Kashipur,"Govt. Girls Inter College, Kashipur - UKPCB","28-09-2025 17:00:00",29.2124114,78.9611753,NH3,2,15,6
India,Uttarakhand,Kashipur,"Govt. Girls Inter College, Kashipur - UKPCB","28-09-2025 17:00:00",29.2124114,78.9611753,CO,14,22,18
India,West_Bengal,Durgapur,"PCBL Residential Complex, Durgapur - WBPCB","28-09-2025 17:00:00",23.5087640,87.3544400,PM2.5,13,69,33
India,West_Bengal,Durgapur,"PCBL Residential Complex, Durgapur - WBPCB","28-09-2025 17:00:00",23.5087640,87.3544400,SO2,5,5,5
India,West_Bengal,Durgapur,"Womens College_City Center, Durgapur - WBPCB (Formerly known as Sidhu Kanhu Indoor Stadium)","28-09-2025 17:00:00",23.549395,87.300496,PM10,10,119,46
India,Uttar_Pradesh,Noida,"Sector - 125, Noida - UPPCB","28-09-2025 17:00:00",28.5447608,77.3231257,OZONE,17,114,49
India,Uttar_Pradesh,Noida,"Sector - 62, Noida - IMD","28-09-2025 17:00:00",28.6245479,77.3577104,PM2.5,24,135,64
India,Uttar_Pradesh,Noida,"Sector-1, Noida - UPPCB","28-09-2025 17:00:00",28.5898,77.3101,PM10,40,244,116
India,Uttar_Pradesh,Noida,"Sector-1, Noida - UPPCB","28-09-2025 17:00:00",28.5898,77.3101,NH3,8,11,9
India,Uttar_Pradesh,Varanasi,"Ardhali Bazar, Varanasi - UPPCB","28-09-2025 17:00:00",25.3505986,82.9083074,CO,4,14,10
India,Uttar_Pradesh,Varanasi,"Bhelupur, Varanasi - UPPCB","28-09-2025 17:00:00",25.301778,82.996789,PM2.5,14,32,23
India,Uttar_Pradesh,Varanasi,"Bhelupur, Varanasi - UPPCB","28-09-2025 17:00:00",25.301778,82.996789,PM10,22,49,35
India,Uttar_Pradesh,Varanasi,"Bhelupur, Varanasi - UPPCB","28-09-2025 17:00:00",25.301778,82.996789,NO2,8,8,8
India,West_Bengal,Asansol,"Mahabir Colliery, Asansol - WBPCB","28-09-2025 17:00:00",23.6181830,87.1057180,PM10,20,70,43
India,West_Bengal,Asansol,"Mahabir Colliery, Asansol - WBPCB","28-09-2025 17:00:00",23.6181830,87.1057180,SO2,5,6,5
India,West_Bengal,Asansol,"Trivenidevi Bhalotia College, Asansol - WBPCB","28-09-2025 17:00:00",23.616515,87.119133,PM2.5,26,141,64
India,West_Bengal,Durgapur,"Womens College_City Center, Durgapur - WBPCB (Formerly known as Sidhu Kanhu Indoor Stadium)","28-09-2025 17:00:00",23.549395,87.300496,SO2,25,33,28
India,West_Bengal,Asansol,"Asansol Court Area, Asansol - WBPCB","28-09-2025 17:00:00",23.685297,86.945968,SO2,10,16,13
India,West_Bengal,Asansol,"Asansol Court Area, Asansol - WBPCB","28-09-2025 17:00:00",23.685297,86.945968,OZONE,11,20,18
India,Uttar_Pradesh,Prayagraj,"Nagar Nigam, Prayagraj - UPPCB","28-09-2025 17:00:00","25.44919916 ","81.82735986 ",CO,10,22,16
India,West_Bengal,Haldia,"Priyambada Housing Estate, Haldia - WBPCB","28-09-2025 17:00:00",22.06047,88.109737,PM10,30,92,54
India,West_Bengal,Howrah,"Belur Math, Howrah - WBPCB","28-09-2025 17:00:00",22.629801,88.352017,NH3,4,17,5
India,West_Bengal,Howrah,"Belur Math, Howrah - WBPCB","28-09-2025 17:00:00",22.629801,88.352017,SO2,8,9,9
India,West_Bengal,Howrah,"Belur Math, Howrah - WBPCB","28-09-2025 17:00:00",22.629801,88.352017,CO,8,23,17
India,West_Bengal,Howrah,"Botanical Garden, Howrah - WBPCB","28-09-2025 17:00:00",22.554954,88.292568,PM10,25,52,38
India,West_Bengal,Howrah,"Botanical Garden, Howrah - WBPCB","28-09-2025 17:00:00",22.554954,88.292568,SO2,13,14,14
India,West_Bengal,Howrah,"Dasnagar, Howrah - WBPCB","28-09-2025 17:00:00",22.6025571,88.3105664,PM2.5,10,65,40
India,West_Bengal,Howrah,"Dasnagar, Howrah - WBPCB","28-09-2025 17:00:00",22.6025571,88.3105664,OZONE,8,35,31
India,West_Bengal,Howrah,"Ghusuri, Howrah - WBPCB","28-09-2025 17:00:00",22.611968,88.347422,NH3,9,10,10
India,West_Bengal,Howrah,"Padmapukur, Howrah - WBPCB","28-09-2025 17:00:00",22.5687319,88.2797276,PM10,22,191,44
India,West_Bengal,Howrah,"Padmapukur, Howrah - WBPCB","28-09-2025 17:00:00",22.5687319,88.2797276,NO2,11,23,16
India,West_Bengal,Howrah,"Padmapukur, Howrah - WBPCB","28-09-2025 17:00:00",22.5687319,88.2797276,CO,24,27,24
India,West_Bengal,Kolkata,"Ballygunge, Kolkata - WBPCB","28-09-2025 17:00:00",22.5367507,88.3638022,PM10,30,50,37
India,West_Bengal,Kolkata,"Ballygunge, Kolkata - WBPCB","28-09-2025 17:00:00",22.5367507,88.3638022,NO2,27,64,47
India,West_Bengal,Kolkata,"Bidhannagar, Kolkata - WBPCB","28-09-2025 17:00:00",22.58157048,88.41002457,NO2,9,20,16
India,West_Bengal,Kolkata,"Jadavpur, Kolkata - WBPCB","28-09-2025 17:00:00",22.49929,88.36917,NO2,23,26,24
India,West_Bengal,Kolkata,"Rabindra Bharati University, Kolkata - WBPCB","28-09-2025 17:00:00",22.627847,88.380669,NH3,7,8,8
India,West_Bengal,Kolkata,"Rabindra Sarobar, Kolkata - WBPCB","28-09-2025 17:00:00",22.51106,88.35142,PM2.5,20,28,23
India,West_Bengal,Kolkata,"Rabindra Sarobar, Kolkata - WBPCB","28-09-2025 17:00:00",22.51106,88.35142,PM10,23,35,28
India,West_Bengal,Kolkata,"Rabindra Sarobar, Kolkata - WBPCB","28-09-2025 17:00:00",22.51106,88.35142,NO2,12,51,27
India,West_Bengal,Kolkata,"Rabindra Sarobar, Kolkata - WBPCB","28-09-2025 17:00:00",22.51106,88.35142,CO,14,20,14
India,West_Bengal,Kolkata,"Victoria, Kolkata - WBPCB","28-09-2025 17:00:00",22.5448082,88.3403691,CO,25,36,28
India,West_Bengal,Siliguri,"Ward-32 Bapupara, Siliguri - WBPCB","28-09-2025 17:00:00",26.6879226,88.4152495,PM2.5,26,39,33
India,West_Bengal,Siliguri,"Ward-32 Bapupara, Siliguri - WBPCB","28-09-2025 17:00:00",26.6879226,88.4152495,PM10,36,77,52
India,Assam,Silchar,"Tarapur, Silchar - PCBA","28-09-2025 17:00:00",24.82827,92.79525,NH3,1,1,1
India,Assam,Sivasagar,"Girls College, Sivasagar - PCBA","28-09-2025 17:00:00",26.987634,94.636574,NH3,3,5,4
India,Assam,Sivasagar,"Girls College, Sivasagar - PCBA","28-09-2025 17:00:00",26.987634,94.636574,CO,10,30,11
India,Assam,Sivasagar,"Girls College, Sivasagar - PCBA","28-09-2025 17:00:00",26.987634,94.636574,OZONE,2,9,5
India,Bihar,Araria,"Kharahiya Basti, Araria - BSPCB","28-09-2025 17:00:00",26.146529,87.454184,PM10,32,56,40
India,Bihar,Araria,"Kharahiya Basti, Araria - BSPCB","28-09-2025 17:00:00",26.146529,87.454184,NO2,1,184,44
India,Bihar,Araria,"Kharahiya Basti, Araria - BSPCB","28-09-2025 17:00:00",26.146529,87.454184,SO2,12,26,20
India,Bihar,Aurangabad,"Gurdeo Nagar, Aurangabad - BSPCB","28-09-2025 17:00:00",24.75746,84.366208,PM10,NA,NA,NA
India,Bihar,Aurangabad,"Gurdeo Nagar, Aurangabad - BSPCB","28-09-2025 17:00:00",24.75746,84.366208,SO2,7,32,15
India,Bihar,Aurangabad,"Gurdeo Nagar, Aurangabad - BSPCB","28-09-2025 17:00:00",24.75746,84.366208,OZONE,3,36,18
India,Bihar,Bhagalpur,"DM Office_Kachari Chowk, Bhagalpur - BSPCB","28-09-2025 17:00:00",25.251013,86.989001,NO2,14,20,17
India,Bihar,Bhagalpur,"DM Office_Kachari Chowk, Bhagalpur - BSPCB","28-09-2025 17:00:00",25.251013,86.989001,OZONE,10,24,17
India,Bihar,Bhagalpur,"Mayaganj, Bhagalpur - BSPCB","28-09-2025 17:00:00",25.265194,87.012947,PM10,31,223,84
India,Bihar,Bhagalpur,"Mayaganj, Bhagalpur - BSPCB","28-09-2025 17:00:00",25.265194,87.012947,SO2,47,64,53
India,Bihar,Bhagalpur,"Mayaganj, Bhagalpur - BSPCB","28-09-2025 17:00:00",25.265194,87.012947,OZONE,26,36,30
India,Bihar,Buxar,"Charitra Van, Buxar - BSPCB","28-09-2025 17:00:00",25.567520,83.966379,PM10,70,71,71
India,Bihar,Buxar,"Charitra Van, Buxar - BSPCB","28-09-2025 17:00:00",25.567520,83.966379,NO2,9,10,10
India,Andhra_Pradesh,Amaravati,"Secretariat, Amaravati - APPCB","28-09-2025 17:00:00",16.5150833,80.5181667,SO2,8,13,11
India,Andhra_Pradesh,Anantapur,"Gulzarpet, Anantapur - APPCB","28-09-2025 17:00:00",14.675886,77.593027,NO2,22,22,22
India,Andhra_Pradesh,Anantapur,"Gulzarpet, Anantapur - APPCB","28-09-2025 17:00:00",14.675886,77.593027,NH3,5,5,5
India,Andhra_Pradesh,Anantapur,"Gulzarpet, Anantapur - APPCB","28-09-2025 17:00:00",14.675886,77.593027,CO,11,28,17
India,Andhra_Pradesh,Anantapur,"Gulzarpet, Anantapur - APPCB","28-09-2025 17:00:00",14.675886,77.593027,OZONE,11,15,14
India,Andhra_Pradesh,Tirumala,"Toll Gate, Tirumala - APPCB","28-09-2025 17:00:00",13.67,79.35,CO,4,108,37
India,Andhra_Pradesh,Tirupati,"Vaikuntapuram, Tirupati - APPCB","28-09-2025 17:00:00",13.615387,79.409230,PM2.5,56,80,68
India,Andhra_Pradesh,Tirupati,"Vaikuntapuram, Tirupati - APPCB","28-09-2025 17:00:00",13.615387,79.409230,CO,2,41,6
India,Andhra_Pradesh,Kadapa,"Yerramukkapalli, Kadapa - APPCB","28-09-2025 17:00:00",14.465052,78.824187,OZONE,35,48,43
India,Andhra_Pradesh,Rajamahendravaram,"Anand Kala Kshetram, Rajamahendravaram - APPCB","28-09-2025 17:00:00",16.9872867,81.7363176,NO2,7,28,15
India,Assam,Guwahati,"LGBI Airport, Guwahati - PCBA","28-09-2025 17:00:00",26.10887,91.589544,SO2,8,19,12
India,Assam,Guwahati,"Pan Bazaar, Guwahati - PCBA","28-09-2025 17:00:00",26.187500,91.744194,PM10,10,44,24
India,Assam,Guwahati,"Pan Bazaar, Guwahati - PCBA","28-09-2025 17:00:00",26.187500,91.744194,CO,8,36,18
India,Assam,Guwahati,"Railway Colony, Guwahati - PCBA","28-09-2025 17:00:00",26.181742,91.78063,PM10,24,91,58
India,Assam,Guwahati,"Railway Colony, Guwahati - PCBA","28-09-2025 17:00:00",26.181742,91.78063,NO2,3,4,3
India,Andhra_Pradesh,Visakhapatnam,"GVM Corporation, Visakhapatnam - APPCB","28-09-2025 17:00:00",17.72,83.3,CO,17,55,25
India,Arunachal_Pradesh,Naharlagun,"Naharlagun, Naharlagun - APSPCB","28-09-2025 17:00:00",27.103358,93.679645,SO2,8,8,8
India,Assam,Guwahati,"IITG, Guwahati - PCBA","28-09-2025 17:00:00",26.2028636,91.70046436,NO2,1,4,2
India,Bihar,Muzaffarpur,"MIT-Daudpur Kothi, Muzaffarpur - BSPCB","28-09-2025 17:00:00",26.1403345,85.3650192,CO,15,17,16
India,Bihar,Muzaffarpur,"MIT-Daudpur Kothi, Muzaffarpur - BSPCB","28-09-2025 17:00:00",26.1403345,85.3650192,OZONE,37,67,47
India,Bihar,Muzaffarpur,"Muzaffarpur Collectorate, Muzaffarpur - BSPCB","28-09-2025 17:00:00",26.1209,85.3647,PM2.5,40,55,44
India,Bihar,Muzaffarpur,"Muzaffarpur Collectorate, Muzaffarpur - BSPCB","28-09-2025 17:00:00",26.1209,85.3647,CO,18,40,40
India,Bihar,Patna,"DRM Office Danapur, Patna - BSPCB","28-09-2025 17:00:00",25.586562,85.043586,NO2,27,35,31
India,Bihar,Patna,"Govt. High School Shikarpur, Patna - BSPCB","28-09-2025 17:00:00",25.592539,85.227158,OZONE,7,11,10
India,Bihar,Patna,"IGSC Planetarium Complex, Patna - BSPCB","28-09-2025 17:00:00",25.610369,85.132568,OZONE,46,48,47
India,Bihar,Patna,"Muradpur, Patna - BSPCB","28-09-2025 17:00:00",25.619651,85.147382,NO2,20,62,41
India,Bihar,Gaya,"Kareemganj, Gaya - BSPCB","28-09-2025 17:00:00",24.792403,84.992416,OZONE,2,55,21
India,Bihar,Hajipur,"Industrial Area, Hajipur - BSPCB","28-09-2025 17:00:00",25.697189,85.245900,PM10,22,55,41
India,Bihar,Hajipur,"Industrial Area, Hajipur - BSPCB","28-09-2025 17:00:00",25.697189,85.245900,NH3,7,9,8
India,Bihar,Hajipur,"Industrial Area, Hajipur - BSPCB","28-09-2025 17:00:00",25.697189,85.245900,OZONE,12,94,59
India,Bihar,Katihar,"Mirchaibari, Katihar - BSPCB","28-09-2025 17:00:00",25.560083,87.553265,PM10,29,32,30
India,Bihar,Katihar,"Mirchaibari, Katihar - BSPCB","28-09-2025 17:00:00",25.560083,87.553265,NH3,1,1,1
India,Bihar,Katihar,"Mirchaibari, Katihar - BSPCB","28-09-2025 17:00:00",25.560083,87.553265,SO2,16,26,20
India,Bihar,Manguraha,"Forest Rest House, Manguraha - BSPCB","28-09-2025 17:00:00",27.308328,84.531742,OZONE,10,23,18
India,Bihar,Chhapra,"Darshan Nagar, Chhapra - BSPCB","28-09-2025 17:00:00",25.7808257,84.7446768,CO,4,7,5
India,Bihar,Chhapra,"Darshan Nagar, Chhapra - BSPCB","28-09-2025 17:00:00",25.7808257,84.7446768,OZONE,3,41,26
India,Bihar,Gaya,"Collectorate, Gaya - BSPCB","28-09-2025 17:00:00",24.7955,84.9994,CO,42,51,48
India,Bihar,Gaya,"Kareemganj, Gaya - BSPCB","28-09-2025 17:00:00",24.792403,84.992416,PM10,46,87,70
India,Bihar,Gaya,"Kareemganj, Gaya - BSPCB","28-09-2025 17:00:00",24.792403,84.992416,SO2,11,19,15
India,Bihar,Patna,"Rajbansi Nagar, Patna - BSPCB","28-09-2025 17:00:00",25.599486,85.113666,OZONE,1,6,4
India,Bihar,Purnia,"Mariam Nagar, Purnia - BSPCB","28-09-2025 17:00:00",25.366336,87.117468,PM10,29,117,53
India,Bihar,Purnia,"Mariam Nagar, Purnia - BSPCB","28-09-2025 17:00:00",25.366336,87.117468,OZONE,17,37,21
India,Bihar,Chhapra,"Darshan Nagar, Chhapra - BSPCB","28-09-2025 17:00:00",25.7808257,84.7446768,PM10,34,167,93
India,Bihar,Chhapra,"Darshan Nagar, Chhapra - BSPCB","28-09-2025 17:00:00",25.7808257,84.7446768,NH3,3,4,3
India,Bihar,Muzaffarpur,"MIT-Daudpur Kothi, Muzaffarpur - BSPCB","28-09-2025 17:00:00",26.1403345,85.3650192,NO2,6,11,8
India,Bihar,Muzaffarpur,"MIT-Daudpur Kothi, Muzaffarpur - BSPCB","28-09-2025 17:00:00",26.1403345,85.3650192,NH3,1,1,1
India,Bihar,Muzaffarpur,"Buddha Colony, Muzaffarpur - BSPCB","28-09-2025 17:00:00",26.11442,85.39813,OZONE,18,57,47
India,Bihar,Patna,"Rajbansi Nagar, Patna - BSPCB","28-09-2025 17:00:00",25.599486,85.113666,SO2,6,7,6
India,Bihar,Munger,"Town Hall, Munger - BSPCB","28-09-2025 17:00:00",25.376776,86.471523,NO2,4,5,5
India,Chhattisgarh,Raipur,"Siltara Phase-II, Raipur - CECB","28-09-2025 17:00:00",21.371751,81.664929,NH3,3,3,3
India,Chhattisgarh,Raipur,"Siltara Phase-II, Raipur - CECB","28-09-2025 17:00:00",21.371751,81.664929,SO2,6,46,14
India,Chhattisgarh,Raipur,"Siltara Phase-II, Raipur - CECB","28-09-2025 17:00:00",21.371751,81.664929,OZONE,6,13,8
India,Chhattisgarh,Tumidih,"OP Jindal Industrial Park, Tumidih - CECB","28-09-2025 17:00:00",22.06631475,83.33820077,PM10,20,40,30
India,Delhi,Delhi,"Alipur, Delhi - DPCC","28-09-2025 17:00:00",28.815329,77.153010,NH3,2,7,4
India,Delhi,Delhi,"Alipur, Delhi - DPCC","28-09-2025 17:00:00",28.815329,77.153010,SO2,1,6,3
India,Delhi,Delhi,"Anand Vihar, Delhi - DPCC","28-09-2025 17:00:00",28.647622,77.3158090,PM2.5,2,361,134
India,Chhattisgarh,Korba,"Rampur, Korba - CECB","28-09-2025 17:00:00",22.368195,82.746431,PM10,13,13,13
India,Chhattisgarh,Korba,"Urja Nagar, Korba - CECB","28-09-2025 17:00:00",22.348441,82.549611,OZONE,35,36,36
India,Chhattisgarh,Kunjemura,"OP Jindal School, Kunjemura - CECB","28-09-2025 17:00:00",22.126650,83.483212,PM10,4,27,11
India,Chhattisgarh,Kunjemura,"OP Jindal School, Kunjemura - CECB","28-09-2025 17:00:00",22.126650,83.483212,NO2,3,3,3
India,Chandigarh,Chandigarh,"Sector-53, Chandigarh - CPCC","28-09-2025 17:00:00",30.719859,76.738637,OZONE,7,49,39
India,Chhattisgarh,Bhilai,"Civic Center, Bhilai - Bhilai Steel Plant","28-09-2025 17:00:00",21.185571,81.343175,PM2.5,10,54,26
India,Chhattisgarh,Bhilai,"Hathkhoj, Bhilai - CECB","28-09-2025 17:00:00",21.224231,81.408350,PM10,4,46,18
India,Chandigarh,Chandigarh,"Sector 22, Chandigarh - CPCC","28-09-2025 17:00:00",30.735567,76.775714,PM2.5,13,82,38
India,Chandigarh,Chandigarh,"Sector 22, Chandigarh - CPCC","28-09-2025 17:00:00",30.735567,76.775714,NH3,40,60,48
India,Chandigarh,Chandigarh,"Sector 22, Chandigarh - CPCC","28-09-2025 17:00:00",30.735567,76.775714,OZONE,8,76,55
India,Chhattisgarh,Raipur,"AIIMS, Raipur - CECB","28-09-2025 17:00:00",21.258815,81.578979,NO2,7,13,9
India,Chhattisgarh,Raipur,"Krishak Nagar, Raipur - CECB","28-09-2025 17:00:00",21.237755,81.705301,PM10,5,24,14
India,Bihar,Siwan,"Chitragupta Nagar, Siwan - BSPCB","28-09-2025 17:00:00",26.2271665,84.3570427,PM10,39,310,81
India,Bihar,Siwan,"Chitragupta Nagar, Siwan - BSPCB","28-09-2025 17:00:00",26.2271665,84.3570427,NH3,1,1,1
India,Chhattisgarh,Chhal,"Nawapara SECL Colony, Chhal - CECB","28-09-2025 17:00:00",22.118125,83.140608,NH3,6,6,6
India,Chandigarh,Chandigarh,"Sector-53, Chandigarh - CPCC","28-09-2025 17:00:00",30.719859,76.738637,NH3,NA,NA,NA
India,Chhattisgarh,Bilaspur,"Mangala, Bilaspur - NTPC","28-09-2025 17:00:00",22.08815,82.13737,NO2,NA,NA,NA
India,Delhi,Delhi,"Nehru Nagar, Delhi - DPCC","28-09-2025 17:00:00",28.567890,77.250515,PM2.5,15,399,111
India,Delhi,Delhi,"Nehru Nagar, Delhi - DPCC","28-09-2025 17:00:00",28.567890,77.250515,CO,12,72,20
India,Delhi,Delhi,"North Campus, DU, Delhi - IMD","28-09-2025 17:00:00",28.6573814,77.1585447,CO,24,111,30
India,Delhi,Delhi,"Okhla Phase-2, Delhi - DPCC","28-09-2025 17:00:00",28.530785,77.271255,PM2.5,13,197,81
India,Delhi,Delhi,"Okhla Phase-2, Delhi - DPCC","28-09-2025 17:00:00",28.530785,77.271255,NO2,17,91,41
India,Delhi,Delhi,"Okhla Phase-2, Delhi - DPCC","28-09-2025 17:00:00",28.530785,77.271255,SO2,5,15,10
India,Delhi,Delhi,"Patparganj, Delhi - DPCC","28-09-2025 17:00:00",28.623763,77.287209,CO,28,75,31
India,Delhi,Delhi,"Patparganj, Delhi - DPCC","28-09-2025 17:00:00",28.623763,77.287209,OZONE,4,188,42
India,Delhi,Delhi,"Lodhi Road, Delhi - IITM","28-09-2025 17:00:00",28.588333,77.221667,PM10,50,162,97
India,Delhi,Delhi,"Lodhi Road, Delhi - IITM","28-09-2025 17:00:00",28.588333,77.221667,SO2,2,12,7
India,Delhi,Delhi,"Lodhi Road, Delhi - IMD","28-09-2025 17:00:00",28.5918245,77.2273074,PM10,NA,NA,NA
India,Delhi,Delhi,"Mandir Marg, Delhi - DPCC","28-09-2025 17:00:00",28.636429,77.201067,PM2.5,NA,NA,NA
India,Delhi,Delhi,"Mandir Marg, Delhi - DPCC","28-09-2025 17:00:00",28.636429,77.201067,NH3,7,10,8
India,Delhi,Delhi,"Bawana, Delhi - DPCC","28-09-2025 17:00:00",28.776200,77.051074,PM10,72,282,152
India,Delhi,Delhi,"Bawana, Delhi - DPCC","28-09-2025 17:00:00",28.776200,77.051074,SO2,9,13,11
India,Delhi,Delhi,"Bawana, Delhi - DPCC","28-09-2025 17:00:00",28.776200,77.051074,CO,52,98,55
India,Delhi,Delhi,"Burari Crossing, Delhi - IMD","28-09-2025 17:00:00",28.7256504,77.2011573,PM10,33,175,90
India,Delhi,Delhi,"Burari Crossing, Delhi - IMD","28-09-2025 17:00:00",28.7256504,77.2011573,NO2,2,37,16
India,Delhi,Delhi,"NSIT Dwarka, Delhi - CPCB","28-09-2025 17:00:00",28.60909,77.0325413,PM10,28,156,95
India,Delhi,Delhi,"Najafgarh, Delhi - DPCC","28-09-2025 17:00:00",28.570173,76.933762,PM10,57,163,110
India,Delhi,Delhi,"Najafgarh, Delhi - DPCC","28-09-2025 17:00:00",28.570173,76.933762,NO2,32,44,39
India,Delhi,Delhi,"Narela, Delhi - DPCC","28-09-2025 17:00:00",28.822836,77.101981,NH3,15,19,16
India,Delhi,Delhi,"Chandni Chowk, Delhi - IITM","28-09-2025 17:00:00",28.656756,77.227234,NO2,2,82,33
India,Delhi,Delhi,"DTU, Delhi - CPCB","28-09-2025 17:00:00",28.7500499,77.1112615,PM2.5,18,167,68
India,Delhi,Delhi,"DTU, Delhi - CPCB","28-09-2025 17:00:00",28.7500499,77.1112615,PM10,36,215,110
India,Delhi,Delhi,"DTU, Delhi - CPCB","28-09-2025 17:00:00",28.7500499,77.1112615,SO2,16,33,24
India,Delhi,Delhi,"IGI Airport (T3), Delhi - IMD","28-09-2025 17:00:00",28.5627763,77.1180053,PM2.5,33,244,93
India,Delhi,Delhi,"IHBAS, Dilshad Garden, Delhi - CPCB","28-09-2025 17:00:00",28.6811736,77.3025234,SO2,12,23,17
India,Delhi,Delhi,"ITO, Delhi - CPCB","28-09-2025 17:00:00",28.628624,77.241060,NO2,83,101,90
India,Delhi,Delhi,"Dr. Karni Singh Shooting Range, Delhi - DPCC","28-09-2025 17:00:00",28.498571,77.264840,PM2.5,18,197,84
India,Delhi,Delhi,"Dr. Karni Singh Shooting Range, Delhi - DPCC","28-09-2025 17:00:00",28.498571,77.264840,NO2,28,83,45
India,Delhi,Delhi,"ITO, Delhi - CPCB","28-09-2025 17:00:00",28.628624,77.241060,SO2,6,18,12
India,Delhi,Delhi,"Jahangirpuri, Delhi - DPCC","28-09-2025 17:00:00",28.732820,77.170633,NO2,19,66,40
India,Delhi,Delhi,"Dwarka-Sector 8, Delhi - DPCC ","28-09-2025 17:00:00",28.5710274,77.0719006,OZONE,6,160,52
India,Gujarat,Ahmedabad,"Rakhial, Ahmedabad - IITM","28-09-2025 17:00:00",23.016834,72.625775,PM10,48,94,71
India,Gujarat,Ahmedabad,"Rakhial, Ahmedabad - IITM","28-09-2025 17:00:00",23.016834,72.625775,NO2,10,57,23
India,Gujarat,Ahmedabad,"SAC ISRO Bopal, Ahmedabad - IITM","28-09-2025 17:00:00",23.041137,72.456691,SO2,1,2,1
India,Gujarat,Ahmedabad,"SAC ISRO Bopal, Ahmedabad - IITM","28-09-2025 17:00:00",23.041137,72.456691,OZONE,12,39,23
India,Gujarat,Ahmedabad,"SAC ISRO Satellite, Ahmedabad - IITM","28-09-2025 17:00:00",23.023389,72.515201,SO2,4,13,6
India,Gujarat,Ahmedabad,"SAC ISRO Satellite, Ahmedabad - IITM","28-09-2025 17:00:00",23.023389,72.515201,CO,8,46,17
India,Gujarat,Ahmedabad,"SAC ISRO Satellite, Ahmedabad - IITM","28-09-2025 17:00:00",23.023389,72.515201,OZONE,7,28,17
India,Gujarat,Ahmedabad,"SVPI Airport Hansol, Ahmedabad - IITM","28-09-2025 17:00:00",23.076793,72.627874,PM2.5,21,46,33
India,Gujarat,Ahmedabad,"SVPI Airport Hansol, Ahmedabad - IITM","28-09-2025 17:00:00",23.076793,72.627874,PM10,48,94,65
India,Gujarat,Ahmedabad,"SVPI Airport Hansol, Ahmedabad - IITM","28-09-2025 17:00:00",23.076793,72.627874,NO2,9,46,25
India,Gujarat,Ankleshwar,"GIDC, Ankleshwar - GPCB","28-09-2025 17:00:00",21.613267,73.010555,PM10,57,58,58
India,Gujarat,Ankleshwar,"GIDC, Ankleshwar - GPCB","28-09-2025 17:00:00",21.613267,73.010555,SO2,61,62,61
India,Delhi,Delhi,"Sri Aurobindo Marg, Delhi - DPCC","28-09-2025 17:00:00",28.531346,77.190156,NH3,4,6,5
India,Delhi,Delhi,"Vivek Vihar, Delhi - DPCC","28-09-2025 17:00:00",28.672342,77.315260,SO2,17,41,27
India,Delhi,Delhi,"Wazirpur, Delhi - DPCC","28-09-2025 17:00:00",28.699793,77.165453,OZONE,1,80,34
India,Gujarat,Ahmedabad,"Chandkheda, Ahmedabad - IITM","28-09-2025 17:00:00",23.107969,72.574648,CO,35,64,49
India,Gujarat,Ahmedabad,"Gyaspur, Ahmedabad - IITM","28-09-2025 17:00:00",22.977134,72.553024,NO2,34,67,50
India,Gujarat,Gandhinagar,"GIFT City, Gandhinagar - IITM","28-09-2025 17:00:00",23.163798,72.677768,SO2,5,14,9
India,Gujarat,Gandhinagar,"GIFT City, Gandhinagar - IITM","28-09-2025 17:00:00",23.163798,72.677768,CO,37,56,47
India,Gujarat,Gandhinagar,"IIPHG Lekawada, Gandhinagar - IITM","28-09-2025 17:00:00",23.243639,72.68994,PM2.5,11,34,23
India,Gujarat,Gandhinagar,"IIPHG Lekawada, Gandhinagar - IITM","28-09-2025 17:00:00",23.243639,72.68994,SO2,1,5,3
India,Gujarat,Vapi,"Phase-1 GIDC, Vapi - GPCB","28-09-2025 17:00:00",20.362421,72.918013,NH3,NA,NA,NA
India,Gujarat,Vapi,"Phase-1 GIDC, Vapi - GPCB","28-09-2025 17:00:00",20.362421,72.918013,SO2,NA,NA,NA
India,Delhi,Delhi,"Shadipur, Delhi - CPCB","28-09-2025 17:00:00",28.6514781,77.1473105,NO2,61,183,87
India,Delhi,Delhi,"Sirifort, Delhi - CPCB","28-09-2025 17:00:00",28.5504249,77.2159377,PM2.5,33,147,70
India,Delhi,Delhi,"Sirifort, Delhi - CPCB","28-09-2025 17:00:00",28.5504249,77.2159377,PM10,57,314,132
India,Delhi,Delhi,"Sonia Vihar, Delhi - DPCC","28-09-2025 17:00:00",28.710508,77.249485,PM10,52,221,112
India,Delhi,Delhi,"Pusa, Delhi - DPCC","28-09-2025 17:00:00",28.639652,77.146275,NH3,11,16,14
India,Delhi,Delhi,"Pusa, Delhi - DPCC","28-09-2025 17:00:00",28.639652,77.146275,CO,15,78,31
India,Delhi,Delhi,"Pusa, Delhi - IMD","28-09-2025 17:00:00",28.636110,77.173332,CO,34,125,42
India,Delhi,Delhi,"R K Puram, Delhi - DPCC","28-09-2025 17:00:00",28.563262,77.186937,PM2.5,30,260,114
India,Delhi,Delhi,"Rohini, Delhi - DPCC","28-09-2025 17:00:00",28.732528,77.119920,NH3,7,9,8
India,Delhi,Delhi,"Rohini, Delhi - DPCC","28-09-2025 17:00:00",28.732528,77.119920,SO2,3,6,4
India,Delhi,Delhi,"Rohini, Delhi - DPCC","28-09-2025 17:00:00",28.732528,77.119920,OZONE,4,94,32
India,Delhi,Delhi,"Shadipur, Delhi - CPCB","28-09-2025 17:00:00",28.6514781,77.1473105,PM2.5,51,79,57
India,Gujarat,Ahmedabad,"Gyaspur, Ahmedabad - IITM","28-09-2025 17:00:00",22.977134,72.553024,SO2,2,23,8
India,Gujarat,Ahmedabad,"Maninagar, Ahmedabad - GPCB","28-09-2025 17:00:00",23.002657,72.591912,SO2,15,26,21
India,Gujarat,Ahmedabad,"Raikhad, Ahmedabad - IITM","28-09-2025 17:00:00",23.020509,72.579261,PM10,67,107,87
India,Gujarat,Vatva,"Phase-4 GIDC, Vatva - GPCB","28-09-2025 17:00:00",22.969611,72.643500,NO2,9,18,13
India,Gujarat,Vatva,"Phase-4 GIDC, Vatva - GPCB","28-09-2025 17:00:00",22.969611,72.643500,CO,8,18,10
India,Gujarat,Vatva,"Phase-4 GIDC, Vatva - GPCB","28-09-2025 17:00:00",22.969611,72.643500,OZONE,19,51,37
India,Haryana,Bhiwani,"H.B. Colony, Bhiwani - HSPCB","28-09-2025 17:00:00",28.806223,76.141105,NH3,NA,NA,NA
India,Haryana,Bhiwani,"H.B. Colony, Bhiwani - HSPCB","28-09-2025 17:00:00",28.806223,76.141105,SO2,NA,NA,NA
India,Jharkhand,Jorapokhar,"Tata Stadium, Jorapokhar - JSPCB","28-09-2025 17:00:00",23.707909,86.414670,PM10,NA,NA,NA
India,Jharkhand,Jorapokhar,"Tata Stadium, Jorapokhar - JSPCB","28-09-2025 17:00:00",23.707909,86.414670,OZONE,1,11,2
India,Karnataka,Bagalkot,"Vidayagiri, Bagalkot - KSPCB","28-09-2025 17:00:00",16.172806,75.659694,NO2,9,10,9
India,Karnataka,Bengaluru,"Bapuji Nagar, Bengaluru - KSPCB","28-09-2025 17:00:00",12.951913,77.539784,NO2,4,7,6
India,Karnataka,Bengaluru,"City Railway Station, Bengaluru - KSPCB","28-09-2025 17:00:00",12.9756843,77.5660749,NO2,45,50,48
India,Karnataka,Bengaluru,"City Railway Station, Bengaluru - KSPCB","28-09-2025 17:00:00",12.9756843,77.5660749,SO2,6,13,9
India,Karnataka,Bengaluru,"Silk Board, Bengaluru - KSPCB","28-09-2025 17:00:00",12.917348,77.622813,OZONE,15,16,15
India,Karnataka,Chamarajanagar,"Urban, Chamarajanagar - KSPCB","28-09-2025 17:00:00",11.55358,76.55521,PM2.5,19,38,26
India,Karnataka,Chamarajanagar,"Urban, Chamarajanagar - KSPCB","28-09-2025 17:00:00",11.55358,76.55521,NH3,1,3,2
India,Karnataka,Chamarajanagar,"Urban, Chamarajanagar - KSPCB","28-09-2025 17:00:00",11.55358,76.55521,CO,14,119,21
India,Karnataka,Chikkamagaluru,"Kalyana Nagara, Chikkamagaluru - KSPCB","28-09-2025 17:00:00",13.328028,75.797056,CO,5,24,20
India,Karnataka,Chikkamagaluru,"Kalyana Nagara, Chikkamagaluru - KSPCB","28-09-2025 17:00:00",13.328028,75.797056,OZONE,12,26,15
India,Karnataka,Kalaburagi,"Mahatma Basaveswar Colony, Kalaburgi - KSPCB","28-09-2025 17:00:00",17.336318,76.847397,CO,30,45,38
India,Karnataka,Madikeri,"Stuart Hill, Madikeri - KSPCB","28-09-2025 17:00:00",12.415911,75.735050,PM2.5,14,27,18
India,Karnataka,Mysuru,"Hebbal 1st Stage, Mysuru - KSPCB","28-09-2025 17:00:00",12.21041,76.37376,PM10,18,41,29
India,Karnataka,Mysuru,"Hebbal 1st Stage, Mysuru - KSPCB","28-09-2025 17:00:00",12.21041,76.37376,NH3,4,5,5
India,"Himachal Pradesh",Baddi,"HIMUDA Complex Phase-1, Baddi - HPPCB","28-09-2025 17:00:00",30.943887,76.801991,PM10,51,179,99
India,"Himachal Pradesh",Baddi,"HIMUDA Complex Phase-1, Baddi - HPPCB","28-09-2025 17:00:00",30.943887,76.801991,NH3,8,10,9
India,"Himachal Pradesh",Baddi,"HIMUDA Complex Phase-1, Baddi - HPPCB","28-09-2025 17:00:00",30.943887,76.801991,OZONE,18,128,84
India,Jammu_and_Kashmir,Srinagar,"Rajbagh, Srinagar - JKSPCB","28-09-2025 17:00:00",34.066206,74.819820,SO2,3,4,3
India,Haryana,Faridabad,"New Industrial Town, Faridabad - HSPCB","28-09-2025 17:00:00",28.39072,77.30059,PM2.5,NA,NA,NA
India,Haryana,Faridabad,"New Industrial Town, Faridabad - HSPCB","28-09-2025 17:00:00",28.39072,77.30059,NH3,NA,NA,NA
India,Haryana,Faridabad,"New Industrial Town, Faridabad - HSPCB","28-09-2025 17:00:00",28.39072,77.30059,SO2,NA,NA,NA
India,Haryana,Faridabad,"Sector 30, Faridabad - HSPCB","28-09-2025 17:00:00",28.4417,77.3217,PM2.5,41,43,42
India,Haryana,Faridabad,"Sector 30, Faridabad - HSPCB","28-09-2025 17:00:00",28.4417,77.3217,PM10,98,102,100
India,Karnataka,Davanagere,"Devaraj Urs Badavane, Davanagere - KSPCB","28-09-2025 17:00:00",14.475800,75.905200,PM2.5,5,38,18
India,Karnataka,Davanagere,"Devaraj Urs Badavane, Davanagere - KSPCB","28-09-2025 17:00:00",14.475800,75.905200,PM10,10,30,21
India,Karnataka,Davanagere,"Devaraj Urs Badavane, Davanagere - KSPCB","28-09-2025 17:00:00",14.475800,75.905200,SO2,1,12,4
India,Karnataka,Bengaluru,"Hombegowda Nagar, Bengaluru - KSPCB","28-09-2025 17:00:00",12.938539,77.590100,SO2,1,14,9
India,Karnataka,Bengaluru,"Shivapura_Peenya, Bengaluru - KSPCB","28-09-2025 17:00:00",13.0246342,77.5080115,PM10,52,70,58
India,Karnataka,Hubballi,"Lingaraj Nagar, Hubballi - KSPCB","28-09-2025 17:00:00",15.3714823,75.1160168,SO2,1,2,1
India,Karnataka,Hubballi,"Lingaraj Nagar, Hubballi - KSPCB","28-09-2025 17:00:00",15.3714823,75.1160168,CO,10,18,16
India,Karnataka,Hubballi,"Lingaraj Nagar, Hubballi - KSPCB","28-09-2025 17:00:00",15.3714823,75.1160168,OZONE,15,16,15
India,Karnataka,Haveri,"Ashwini Nagar, Haveri - KSPCB","28-09-2025 17:00:00",14.791800,75.389600,NO2,32,50,38
India,"Madhya Pradesh",Indore,"Regional Park, Indore - IMC","28-09-2025 17:00:00",22.6780,75.8559,NH3,NA,NA,NA
India,"Madhya Pradesh",Indore,"Residency Area, Indore - IMC","28-09-2025 17:00:00",22.7084,75.8815,PM2.5,12,40,21
India,"Madhya Pradesh",Indore,"Residency Area, Indore - IMC","28-09-2025 17:00:00",22.7084,75.8815,NO2,12,21,16
India,"Madhya Pradesh",Indore,"Residency Area, Indore - IMC","28-09-2025 17:00:00",22.7084,75.8815,SO2,19,43,24
India,"Madhya Pradesh",Indore,"Residency Area, Indore - IMC","28-09-2025 17:00:00",22.7084,75.8815,CO,13,16,13
India,"Madhya Pradesh",Indore,"Residency Area, Indore - IMC","28-09-2025 17:00:00",22.7084,75.8815,OZONE,10,13,11
India,"Madhya Pradesh",Jabalpur,"Govindh Bhavan Colony, Jabalpur - JMC","28-09-2025 17:00:00",23.163174,79.973061,SO2,25,26,26
India,"Madhya Pradesh",Jabalpur,"Gupteshwar, Jabalpur - JMC","28-09-2025 17:00:00",23.142888,79.916147,NH3,3,7,5
India,"Madhya Pradesh",Jabalpur,"Gupteshwar, Jabalpur - JMC","28-09-2025 17:00:00",23.142888,79.916147,CO,36,51,40
India,Kerala,Kannur,"Thavakkara, Kannur - Kerala PCB","28-09-2025 17:00:00",11.875000,75.373200,CO,14,16,15
India,Kerala,Kollam,"Polayathode, Kollam - Kerala PCB","28-09-2025 17:00:00",8.8787,76.6073,OZONE,29,35,34
India,Kerala,Thiruvananthapuram,"Kariavattom, Thiruvananthapuram - Kerala PCB","28-09-2025 17:00:00",8.563700,76.886500,PM10,43,50,47
India,Kerala,Thiruvananthapuram,"Plammoodu, Thiruvananthapuram - Kerala PCB","28-09-2025 17:00:00",8.5149093,76.9435879,PM2.5,NA,NA,NA
India,Kerala,Thiruvananthapuram,"Plammoodu, Thiruvananthapuram - Kerala PCB","28-09-2025 17:00:00",8.5149093,76.9435879,PM10,1,95,20
India,Kerala,Thiruvananthapuram,"Plammoodu, Thiruvananthapuram - Kerala PCB","28-09-2025 17:00:00",8.5149093,76.9435879,CO,4,16,7
India,"Madhya Pradesh",Bhopal,"Idgah Hills, Bhopal - MPPCB","28-09-2025 17:00:00",23.264759,77.381568,PM2.5,23,243,41
India,"Madhya Pradesh",Bhopal,"Idgah Hills, Bhopal - MPPCB","28-09-2025 17:00:00",23.264759,77.381568,PM10,34,164,93
India,"Madhya Pradesh",Bhopal,"Idgah Hills, Bhopal - MPPCB","28-09-2025 17:00:00",23.264759,77.381568,SO2,11,13,12
India,"Madhya Pradesh",Bhopal,"Paryavaran Parisar, Bhopal - MPPCB","28-09-2025 17:00:00",23.210494,77.425409,PM10,20,48,29
India,"Madhya Pradesh",Bhopal,"T T Nagar, Bhopal - MPPCB","28-09-2025 17:00:00",23.233584,77.400574,NO2,16,30,22
India,"Madhya Pradesh",Bhopal,"T T Nagar, Bhopal - MPPCB","28-09-2025 17:00:00",23.233584,77.400574,SO2,8,12,10
India,Karnataka,Ramanagara,"Vijay Nagar, Ramanagara - KSPCB","28-09-2025 17:00:00",12.733409,77.298051,NO2,NA,NA,NA
India,Karnataka,Ramanagara,"Vijay Nagar, Ramanagara - KSPCB","28-09-2025 17:00:00",12.733409,77.298051,NH3,NA,NA,NA
India,Karnataka,Shivamogga,"Vinoba Nagara, Shivamogga - KSPCB","28-09-2025 17:00:00",13.940000,75.555917,PM2.5,16,24,18
India,Karnataka,Yadgir,"Collector Office, Yadgir - KSPCB","28-09-2025 17:00:00",16.7602,77.1428,NO2,24,39,33
India,"Madhya Pradesh",Katni,"Gole Bazar, Katni - MPPCB","28-09-2025 17:00:00",23.50016,80.23284,NO2,31,34,33
India,"Madhya Pradesh",Katni,"Gole Bazar, Katni - MPPCB","28-09-2025 17:00:00",23.50016,80.23284,NH3,3,3,3
India,"Madhya Pradesh",Maihar,"Sahilara, Maihar - KJS Cements","28-09-2025 17:00:00",24.2613009,80.7231783,PM2.5,NA,NA,NA
India,"Madhya Pradesh",Jabalpur,"Marhatal, Jabalpur - MPPCB","28-09-2025 17:00:00",23.168606,79.932247,PM10,9,38,19
India,"Madhya Pradesh",Jabalpur,"Suhagi, Jabalpur - JMC","28-09-2025 17:00:00",23.218135,79.957770,OZONE,16,61,49
India,"Madhya Pradesh",Gwalior,"Deen Dayal Nagar, Gwalior - MPPCB","28-09-2025 17:00:00",26.259242,78.216432,NH3,2,5,3
India,"Madhya Pradesh",Gwalior,"Deen Dayal Nagar, Gwalior - MPPCB","28-09-2025 17:00:00",26.259242,78.216432,CO,27,59,56
India,"Madhya Pradesh",Indore,"Chhoti Gwaltoli, Indore - MPPCB","28-09-2025 17:00:00",22.4310,75.5213,OZONE,23,43,32
India,"Madhya Pradesh",Indore,"Airport Area, Indore - IMC","28-09-2025 17:00:00",22.7289,75.8076,PM10,NA,NA,NA
India,Maharashtra,Chandrapur,"MIDC Khutala, Chandrapur - MPCB","28-09-2025 17:00:00",19.9775302,79.2337086,NH3,1,4,2
India,Maharashtra,Chandrapur,"MIDC Khutala, Chandrapur - MPCB","28-09-2025 17:00:00",19.9775302,79.2337086,OZONE,17,22,18
India,Maharashtra,Dhule,"Deopur, Dhule - MPCB","28-09-2025 17:00:00",20.918946,74.776388,PM10,22,82,41
India,Maharashtra,Jalgaon,"Prabhat Colony, Jalgaon - MPCB","28-09-2025 17:00:00",21.001264,75.565602,NH3,2,3,3
India,Maharashtra,Jalna,"Old MIDC, Jalna - MPCB","28-09-2025 17:00:00",19.854616,75.905894,CO,NA,NA,NA
India,Maharashtra,Kalyan,"Khadakpada, Kalyan - MPCB","28-09-2025 17:00:00",19.25292,73.142019,NO2,8,10,9
India,Maharashtra,Kolhapur,"Shivaji University, Kolhapur - MPCB","28-09-2025 17:00:00",16.6870449,74.2505872,PM10,3,53,17
India,Maharashtra,Amravati,"Shri Shivaji Science College, Amravati - MPCB","28-09-2025 17:00:00",20.939198,77.765701,NO2,5,26,12
India,Maharashtra,Aurangabad,"More Chowk Waluj, Aurangabad - MPCB","28-09-2025 17:00:00",19.8389439,75.244448,SO2,1,17,12
India,Maharashtra,Aurangabad,"Rachnakar Colony, Aurangabad - MPCB","28-09-2025 17:00:00",19.863756,75.321188,PM2.5,13,313,44
India,Maharashtra,Aurangabad,"Rachnakar Colony, Aurangabad - MPCB","28-09-2025 17:00:00",19.863756,75.321188,NH3,2,5,3
India,Maharashtra,Aurangabad,"Rachnakar Colony, Aurangabad - MPCB","28-09-2025 17:00:00",19.863756,75.321188,SO2,7,39,19
India,Maharashtra,Belapur,"CBD Belapur, Belapur - MPCB","28-09-2025 17:00:00",19.0243902,73.0406721,PM2.5,17,29,21
India,Maharashtra,Belapur,"CBD Belapur, Belapur - MPCB","28-09-2025 17:00:00",19.0243902,73.0406721,CO,4,28,10
India,Maharashtra,Belapur,"CBD Belapur, Belapur - MPCB","28-09-2025 17:00:00",19.0243902,73.0406721,OZONE,15,65,46
India,Maharashtra,Bhiwandi,"Gokul Nagar, Bhiwandi - MPCB","28-09-2025 17:00:00",19.309073,73.057223,SO2,3,10,6
